[
  {
    "id": "nm-juan-pablo-ii",
    "nombre": "Juan Pablo II",
    "lat": "-27.25155556",
    "lon": "-65.63062222",
    "mineral_principal": "Arena",
    "provincia": "Tucuman",
    "etapa": "produccion",
    "empresa_operadora": "Nacul Jorge Pablo",
    "pais_empresa": "",
    "capital_australiano": "false",
    "tipo": "no_metalifero"
  },
  {
    "id": "nm-papa-fco",
    "nombre": "Papa Fco",
    "lat": "-27.27565833",
    "lon": "-65.58596667",
    "mineral_principal": "Arena",
    "provincia": "Tucuman",
    "etapa": "produccion",
    "empresa_operadora": "Nacul Jorge Pablo",
    "pais_empresa": "",
    "capital_australiano": "false",
    "tipo": "no_metalifero"
  },
  {
    "id": "nm-aridos-del-sali",
    "nombre": "Aridos del Sali",
    "lat": "-26.78037778",
    "lon": "-65.159725",
    "mineral_principal": "Arena",
    "provincia": "Tucuman",
    "etapa": "produccion",
    "empresa_operadora": "Aridos del Sali",
    "pais_empresa": "",
    "capital_australiano": "false",
    "tipo": "no_metalifero"
  },
  {
    "id": "nm-coop-trab-alderetes",
    "nombre": "Coop. Trab. Alderetes",
    "lat": "-26.75302778",
    "lon": "-65.14953611",
    "mineral_principal": "Arena",
    "provincia": "Tucuman",
    "etapa": "produccion",
    "empresa_operadora": "Coop. Trab. Alderetes",
    "pais_empresa": "",
    "capital_australiano": "false",
    "tipo": "no_metalifero"
  },
  {
    "id": "nm-los-porceles",
    "nombre": "Los Porceles",
    "lat": "-26.93632222",
    "lon": "-65.21565",
    "mineral_principal": "Arena",
    "provincia": "Tucuman",
    "etapa": "produccion",
    "empresa_operadora": "Cuevas Juan José",
    "pais_empresa": "",
    "capital_australiano": "false",
    "tipo": "no_metalifero"
  },
  {
    "id": "nm-san-andr-s",
    "nombre": "San Andrés",
    "lat": "-26.89530556",
    "lon": "-65.20611389",
    "mineral_principal": "Arena",
    "provincia": "Tucuman",
    "etapa": "produccion",
    "empresa_operadora": "Cuevas Juan José",
    "pais_empresa": "",
    "capital_australiano": "false",
    "tipo": "no_metalifero"
  },
  {
    "id": "nm-galindo-const",
    "nombre": "Galindo Const.",
    "lat": "-26.69531111",
    "lon": "-65.07573611",
    "mineral_principal": "Arena",
    "provincia": "Tucuman",
    "etapa": "produccion",
    "empresa_operadora": "Galindo Constr. S.R.L.",
    "pais_empresa": "",
    "capital_australiano": "false",
    "tipo": "no_metalifero"
  },
  {
    "id": "nm-munic-monteros",
    "nombre": "Munic. Monteros",
    "lat": "-27.12945833",
    "lon": "-65.51310833",
    "mineral_principal": "Arena",
    "provincia": "Tucuman",
    "etapa": "produccion",
    "empresa_operadora": "Munic. Monteros",
    "pais_empresa": "",
    "capital_australiano": "false",
    "tipo": "no_metalifero"
  },
  {
    "id": "nm-la-chimbera",
    "nombre": "La Chimbera",
    "lat": "-26.96398611",
    "lon": "-65.38310556",
    "mineral_principal": "Arena",
    "provincia": "Tucuman",
    "etapa": "produccion",
    "empresa_operadora": "Vicente Ariel Avila",
    "pais_empresa": "",
    "capital_australiano": "false",
    "tipo": "no_metalifero"
  },
  {
    "id": "nm-helpa",
    "nombre": "Helpa",
    "lat": "-26.73176667",
    "lon": "-65.11862222",
    "mineral_principal": "Arena",
    "provincia": "Tucuman",
    "etapa": "produccion",
    "empresa_operadora": "Helpa S.A.",
    "pais_empresa": "",
    "capital_australiano": "false",
    "tipo": "no_metalifero"
  },
  {
    "id": "nm-munic-las-talitas",
    "nombre": "Munic. Las Talitas",
    "lat": "-26.76531667",
    "lon": "-65.16390833",
    "mineral_principal": "Arena",
    "provincia": "Tucuman",
    "etapa": "produccion",
    "empresa_operadora": "Munic. Las Talitas",
    "pais_empresa": "",
    "capital_australiano": "false",
    "tipo": "no_metalifero"
  },
  {
    "id": "nm-lules-norte",
    "nombre": "Lules Norte",
    "lat": "-26.91373056",
    "lon": "-65.33716111",
    "mineral_principal": "Arena",
    "provincia": "Tucuman",
    "etapa": "produccion",
    "empresa_operadora": "Munic. Lules",
    "pais_empresa": "",
    "capital_australiano": "false",
    "tipo": "no_metalifero"
  },
  {
    "id": "nm-la-bolsa",
    "nombre": "La Bolsa",
    "lat": "-26.91938889",
    "lon": "-65.30303056",
    "mineral_principal": "Arena",
    "provincia": "Tucuman",
    "etapa": "produccion",
    "empresa_operadora": "Munic. Lules",
    "pais_empresa": "",
    "capital_australiano": "false",
    "tipo": "no_metalifero"
  },
  {
    "id": "nm-san-rafael",
    "nombre": "San Rafael",
    "lat": "-26.95806389",
    "lon": "-65.38975556",
    "mineral_principal": "Arena",
    "provincia": "Tucuman",
    "etapa": "produccion",
    "empresa_operadora": "Munic. Lules",
    "pais_empresa": "",
    "capital_australiano": "false",
    "tipo": "no_metalifero"
  },
  {
    "id": "nm-gael",
    "nombre": "Gael",
    "lat": "-27.63858611",
    "lon": "-65.65443333",
    "mineral_principal": "Arena",
    "provincia": "Tucuman",
    "etapa": "produccion",
    "empresa_operadora": "Angelino Arroyo",
    "pais_empresa": "",
    "capital_australiano": "false",
    "tipo": "no_metalifero"
  },
  {
    "id": "nm-canseco",
    "nombre": "Canseco",
    "lat": "-26.62011111",
    "lon": "-65.37415833",
    "mineral_principal": "Arena",
    "provincia": "Tucuman",
    "etapa": "produccion",
    "empresa_operadora": "Canseco Oscar",
    "pais_empresa": "",
    "capital_australiano": "false",
    "tipo": "no_metalifero"
  },
  {
    "id": "nm-elias-dg-zerda",
    "nombre": "Elias DG - Zerda",
    "lat": "-27.11158889",
    "lon": "-65.52973889",
    "mineral_principal": "Arena",
    "provincia": "Tucuman",
    "etapa": "produccion",
    "empresa_operadora": "Elias Daniel Gustavo",
    "pais_empresa": "",
    "capital_australiano": "false",
    "tipo": "no_metalifero"
  },
  {
    "id": "nm-elias-md-mandolo",
    "nombre": "Elias MD - Mandolo",
    "lat": "-27.17271389",
    "lon": "-65.58724167",
    "mineral_principal": "Arena",
    "provincia": "Tucuman",
    "etapa": "produccion",
    "empresa_operadora": "Elias Mario Dante",
    "pais_empresa": "",
    "capital_australiano": "false",
    "tipo": "no_metalifero"
  },
  {
    "id": "nm-elias-md-romano",
    "nombre": "Elias MD - Romano",
    "lat": "-27.14958056",
    "lon": "-65.49581944",
    "mineral_principal": "Arena",
    "provincia": "Tucuman",
    "etapa": "produccion",
    "empresa_operadora": "Elias Mario Dante",
    "pais_empresa": "",
    "capital_australiano": "false",
    "tipo": "no_metalifero"
  },
  {
    "id": "nm-gonz-lez-me-las-tipas",
    "nombre": "González ME - Las Tipas",
    "lat": "-26.23860278",
    "lon": "-65.50549444",
    "mineral_principal": "Arena",
    "provincia": "Tucuman",
    "etapa": "produccion",
    "empresa_operadora": "González, Ma. Carmen",
    "pais_empresa": "",
    "capital_australiano": "false",
    "tipo": "no_metalifero"
  },
  {
    "id": "nm-el-bollero",
    "nombre": "El Bollero",
    "lat": "-26.24310278",
    "lon": "-65.25034167",
    "mineral_principal": "Arena",
    "provincia": "Tucuman",
    "etapa": "produccion",
    "empresa_operadora": "González, Ma. Carmen",
    "pais_empresa": "",
    "capital_australiano": "false",
    "tipo": "no_metalifero"
  },
  {
    "id": "nm-la-bolsa",
    "nombre": "La Bolsa",
    "lat": "-26.91603056",
    "lon": "-65.32341944",
    "mineral_principal": "Arena",
    "provincia": "Tucuman",
    "etapa": "produccion",
    "empresa_operadora": "Tradeco S.R.L",
    "pais_empresa": "",
    "capital_australiano": "false",
    "tipo": "no_metalifero"
  },
  {
    "id": "nm-la-blanquita",
    "nombre": "La Blanquita",
    "lat": "-26.74294722",
    "lon": "-65.12918611",
    "mineral_principal": "Arena",
    "provincia": "Tucuman",
    "etapa": "produccion",
    "empresa_operadora": "Fernando L. López",
    "pais_empresa": "",
    "capital_australiano": "false",
    "tipo": "no_metalifero"
  },
  {
    "id": "nm-la-granja-la-aguadita",
    "nombre": "La Granja - La Aguadita",
    "lat": "-26.74204722",
    "lon": "-65.15693056",
    "mineral_principal": "Arena",
    "provincia": "Tucuman",
    "etapa": "produccion",
    "empresa_operadora": "Tradeco S.R.L",
    "pais_empresa": "",
    "capital_australiano": "false",
    "tipo": "no_metalifero"
  },
  {
    "id": "nm-el-arenal",
    "nombre": "El Arenal",
    "lat": "-26.96659444",
    "lon": "-65.22619444",
    "mineral_principal": "Arena",
    "provincia": "Tucuman",
    "etapa": "produccion",
    "empresa_operadora": "El Arenal S.H.",
    "pais_empresa": "",
    "capital_australiano": "false",
    "tipo": "no_metalifero"
  },
  {
    "id": "nm-limbadi",
    "nombre": "Limbadi",
    "lat": "-26.68775",
    "lon": "-65.1766",
    "mineral_principal": "Arena",
    "provincia": "Tucuman",
    "etapa": "produccion",
    "empresa_operadora": "Limbadi S.R.L.",
    "pais_empresa": "",
    "capital_australiano": "false",
    "tipo": "no_metalifero"
  },
  {
    "id": "nm-limbadi",
    "nombre": "Limbadi",
    "lat": "-26.55403889",
    "lon": "-65.25406667",
    "mineral_principal": "Arena",
    "provincia": "Tucuman",
    "etapa": "produccion",
    "empresa_operadora": "Limbadi S.R.L.",
    "pais_empresa": "",
    "capital_australiano": "false",
    "tipo": "no_metalifero"
  },
  {
    "id": "nm-hernandez",
    "nombre": "Hernandez",
    "lat": "-27.26445278",
    "lon": "-65.60661111",
    "mineral_principal": "Arena",
    "provincia": "Tucuman",
    "etapa": "produccion",
    "empresa_operadora": "Hernández Francisco",
    "pais_empresa": "",
    "capital_australiano": "false",
    "tipo": "no_metalifero"
  },
  {
    "id": "nm-hernandez",
    "nombre": "Hernandez",
    "lat": "-27.31466667",
    "lon": "-65.68843333",
    "mineral_principal": "Arena",
    "provincia": "Tucuman",
    "etapa": "produccion",
    "empresa_operadora": "Hernández Francisco",
    "pais_empresa": "",
    "capital_australiano": "false",
    "tipo": "no_metalifero"
  },
  {
    "id": "nm-sd-final-overo-pozo",
    "nombre": "SD Final Overo Pozo",
    "lat": "-26.83043611",
    "lon": "-64.86927778",
    "mineral_principal": "Arena",
    "provincia": "Tucuman",
    "etapa": "produccion",
    "empresa_operadora": "Perfiltra S.A.",
    "pais_empresa": "",
    "capital_australiano": "false",
    "tipo": "no_metalifero"
  },
  {
    "id": "nm-rojano",
    "nombre": "Rojano",
    "lat": "-27.26690556",
    "lon": "-65.58952778",
    "mineral_principal": "Arena",
    "provincia": "Tucuman",
    "etapa": "produccion",
    "empresa_operadora": "Rojano Miguel Angel e Hijos SRL",
    "pais_empresa": "",
    "capital_australiano": "false",
    "tipo": "no_metalifero"
  },
  {
    "id": "nm-rojano",
    "nombre": "Rojano",
    "lat": "-27.32835556",
    "lon": "-65.62122778",
    "mineral_principal": "Arena",
    "provincia": "Tucuman",
    "etapa": "produccion",
    "empresa_operadora": "Rojano Miguel Angel e Hijos SRL",
    "pais_empresa": "",
    "capital_australiano": "false",
    "tipo": "no_metalifero"
  },
  {
    "id": "nm-rojano",
    "nombre": "Rojano",
    "lat": "-27.36385556",
    "lon": "-65.83411944",
    "mineral_principal": "Arena",
    "provincia": "Tucuman",
    "etapa": "produccion",
    "empresa_operadora": "Rojano Miguel Angel e Hijos SRL",
    "pais_empresa": "",
    "capital_australiano": "false",
    "tipo": "no_metalifero"
  },
  {
    "id": "nm-ccl-lules",
    "nombre": "CCL - Lules",
    "lat": "-26.92034444",
    "lon": "-65.313125",
    "mineral_principal": "Arena",
    "provincia": "Tucuman",
    "etapa": "produccion",
    "empresa_operadora": "CCL SRL",
    "pais_empresa": "",
    "capital_australiano": "false",
    "tipo": "no_metalifero"
  },
  {
    "id": "nm-cantera-finar",
    "nombre": "Cantera Finar",
    "lat": "-27.02648056",
    "lon": "-65.48985278",
    "mineral_principal": "Arena",
    "provincia": "Tucuman",
    "etapa": "produccion",
    "empresa_operadora": "Finar S.A.",
    "pais_empresa": "",
    "capital_australiano": "false",
    "tipo": "no_metalifero"
  },
  {
    "id": "nm-min-alumbrera",
    "nombre": "Min Alumbrera",
    "lat": "-27.37077778",
    "lon": "-65.88620278",
    "mineral_principal": "Arena",
    "provincia": "Tucuman",
    "etapa": "produccion",
    "empresa_operadora": "Min Alumbrera LTD",
    "pais_empresa": "",
    "capital_australiano": "false",
    "tipo": "no_metalifero"
  },
  {
    "id": "nm-calleri",
    "nombre": "Calleri",
    "lat": "-26.91901389",
    "lon": "-65.31770278",
    "mineral_principal": "Arena",
    "provincia": "Tucuman",
    "etapa": "produccion",
    "empresa_operadora": "Calleri Sebastián Constr",
    "pais_empresa": "",
    "capital_australiano": "false",
    "tipo": "no_metalifero"
  },
  {
    "id": "nm-martin",
    "nombre": "Martin",
    "lat": "-26.88078056",
    "lon": "-65.70621111",
    "mineral_principal": "Arena",
    "provincia": "Tucuman",
    "etapa": "produccion",
    "empresa_operadora": "Flores Martin César",
    "pais_empresa": "",
    "capital_australiano": "false",
    "tipo": "no_metalifero"
  },
  {
    "id": "nm-don-felipe",
    "nombre": "Don Felipe",
    "lat": "-26.88420278",
    "lon": "-65.70495556",
    "mineral_principal": "Arena",
    "provincia": "Tucuman",
    "etapa": "produccion",
    "empresa_operadora": "Arnedo Gillermo Antonio",
    "pais_empresa": "",
    "capital_australiano": "false",
    "tipo": "no_metalifero"
  },
  {
    "id": "nm-el-pedregal",
    "nombre": "El Pedregal",
    "lat": "-26.88565556",
    "lon": "-65.70451667",
    "mineral_principal": "Arena",
    "provincia": "Tucuman",
    "etapa": "produccion",
    "empresa_operadora": "Olima Luis Héctor",
    "pais_empresa": "",
    "capital_australiano": "false",
    "tipo": "no_metalifero"
  },
  {
    "id": "nm-el-paraiso",
    "nombre": "El Paraiso",
    "lat": "-26.88745556",
    "lon": "-65.70379444",
    "mineral_principal": "Arena",
    "provincia": "Tucuman",
    "etapa": "produccion",
    "empresa_operadora": "Olima Maximo Antonio",
    "pais_empresa": "",
    "capital_australiano": "false",
    "tipo": "no_metalifero"
  },
  {
    "id": "nm-el-c-ndor",
    "nombre": "El Cóndor",
    "lat": "-26.88871389",
    "lon": "-65.72033056",
    "mineral_principal": "Arena",
    "provincia": "Tucuman",
    "etapa": "produccion",
    "empresa_operadora": "Condori Néstor Fernando",
    "pais_empresa": "",
    "capital_australiano": "false",
    "tipo": "no_metalifero"
  },
  {
    "id": "nm-del-pilar",
    "nombre": "Del Pilar",
    "lat": "-26.88943889",
    "lon": "-65.70376111",
    "mineral_principal": "Arena",
    "provincia": "Tucuman",
    "etapa": "produccion",
    "empresa_operadora": "Gómez Néstor Nicolás",
    "pais_empresa": "",
    "capital_australiano": "false",
    "tipo": "no_metalifero"
  },
  {
    "id": "nm-lalo",
    "nombre": "Lalo",
    "lat": "-26.89773611",
    "lon": "-65.70210556",
    "mineral_principal": "Arena",
    "provincia": "Tucuman",
    "etapa": "produccion",
    "empresa_operadora": "Medina Benito Eduardo",
    "pais_empresa": "",
    "capital_australiano": "false",
    "tipo": "no_metalifero"
  },
  {
    "id": "nm-sema",
    "nombre": "Sema",
    "lat": "-27.05593333",
    "lon": "-65.47741111",
    "mineral_principal": "Arena",
    "provincia": "Tucuman",
    "etapa": "produccion",
    "empresa_operadora": "Sema Roque Pedro Augusto",
    "pais_empresa": "",
    "capital_australiano": "false",
    "tipo": "no_metalifero"
  },
  {
    "id": "nm-san-jose",
    "nombre": "San Jose",
    "lat": "-26.99389444",
    "lon": "-65.24943333",
    "mineral_principal": "Arena",
    "provincia": "Tucuman",
    "etapa": "produccion",
    "empresa_operadora": "Jose Matias Soria",
    "pais_empresa": "",
    "capital_australiano": "false",
    "tipo": "no_metalifero"
  },
  {
    "id": "nm-miralejos",
    "nombre": "Miralejos",
    "lat": "-26.97870278",
    "lon": "-65.24023056",
    "mineral_principal": "Arena",
    "provincia": "Tucuman",
    "etapa": "produccion",
    "empresa_operadora": "Canteras y Transporte López SRL",
    "pais_empresa": "",
    "capital_australiano": "false",
    "tipo": "no_metalifero"
  },
  {
    "id": "nm-soles",
    "nombre": "Soles",
    "lat": "-26.97729167",
    "lon": "-65.23627778",
    "mineral_principal": "Arena",
    "provincia": "Tucuman",
    "etapa": "produccion",
    "empresa_operadora": "Cantera Miralejos SRL",
    "pais_empresa": "",
    "capital_australiano": "false",
    "tipo": "no_metalifero"
  },
  {
    "id": "nm-di-bacco-li",
    "nombre": "Di Bacco lI",
    "lat": "-26.62922778",
    "lon": "-65.35575833",
    "mineral_principal": "Arena",
    "provincia": "Tucuman",
    "etapa": "produccion",
    "empresa_operadora": "Di Bacco & cia SA",
    "pais_empresa": "",
    "capital_australiano": "false",
    "tipo": "no_metalifero"
  },
  {
    "id": "nm-munic-bella-vista",
    "nombre": "Munic. Bella Vista",
    "lat": "-26.96766667",
    "lon": "-65.37591389",
    "mineral_principal": "Arena",
    "provincia": "Tucuman",
    "etapa": "produccion",
    "empresa_operadora": "Munic. Bella Vista",
    "pais_empresa": "",
    "capital_australiano": "false",
    "tipo": "no_metalifero"
  },
  {
    "id": "nm-diaz-tipas",
    "nombre": "Diaz - Tipas",
    "lat": "-26.22450556",
    "lon": "-65.494625",
    "mineral_principal": "Arena",
    "provincia": "Tucuman",
    "etapa": "produccion",
    "empresa_operadora": "Elvio Andrés Diaz",
    "pais_empresa": "",
    "capital_australiano": "false",
    "tipo": "no_metalifero"
  },
  {
    "id": "nm-el-sur",
    "nombre": "El Sur",
    "lat": "-27.043425",
    "lon": "-65.25876667",
    "mineral_principal": "Arena",
    "provincia": "Tucuman",
    "etapa": "produccion",
    "empresa_operadora": "Jiménez Mauro Sebastian",
    "pais_empresa": "",
    "capital_australiano": "false",
    "tipo": "no_metalifero"
  },
  {
    "id": "nm-p-ez",
    "nombre": "Páez",
    "lat": "-27.02883056",
    "lon": "-65.24295556",
    "mineral_principal": "Arena",
    "provincia": "Tucuman",
    "etapa": "produccion",
    "empresa_operadora": "Páez Valeria Mabel",
    "pais_empresa": "",
    "capital_australiano": "false",
    "tipo": "no_metalifero"
  },
  {
    "id": "nm-la-bolsa-l",
    "nombre": "La Bolsa l",
    "lat": "-26.93923611",
    "lon": "-65.31696667",
    "mineral_principal": "Arena",
    "provincia": "Tucuman",
    "etapa": "produccion",
    "empresa_operadora": "Luca Paulino",
    "pais_empresa": "",
    "capital_australiano": "false",
    "tipo": "no_metalifero"
  },
  {
    "id": "nm-rocha-rio-colorado",
    "nombre": "Rocha Rio Colorado",
    "lat": "-26.93335278",
    "lon": "-65.21299444",
    "mineral_principal": "Arena",
    "provincia": "Tucuman",
    "etapa": "produccion",
    "empresa_operadora": "Rocha Andrea Beatríz",
    "pais_empresa": "",
    "capital_australiano": "false",
    "tipo": "no_metalifero"
  },
  {
    "id": "nm-caspichango",
    "nombre": "Caspichango",
    "lat": "-27.07468611",
    "lon": "-65.48499722",
    "mineral_principal": "Arena",
    "provincia": "Tucuman",
    "etapa": "produccion",
    "empresa_operadora": "Pedro Pascual Garez (Jaidar Maria)",
    "pais_empresa": "",
    "capital_australiano": "false",
    "tipo": "no_metalifero"
  },
  {
    "id": "nm-vargas",
    "nombre": "Vargas",
    "lat": "-27.04878056",
    "lon": "-65.26280833",
    "mineral_principal": "Arena",
    "provincia": "Tucuman",
    "etapa": "produccion",
    "empresa_operadora": "Vargas Rubén",
    "pais_empresa": "",
    "capital_australiano": "false",
    "tipo": "no_metalifero"
  },
  {
    "id": "nm-tradeco-srl-hormeco-srl",
    "nombre": "Tradeco SRL - Hormeco SRL",
    "lat": "-26.53403333",
    "lon": "-65.30723611",
    "mineral_principal": "Arena",
    "provincia": "Tucuman",
    "etapa": "produccion",
    "empresa_operadora": "Plano Julio",
    "pais_empresa": "",
    "capital_australiano": "false",
    "tipo": "no_metalifero"
  },
  {
    "id": "nm-tucuman-aridos",
    "nombre": "Tucuman Aridos",
    "lat": "-26.78754444",
    "lon": "-65.15656111",
    "mineral_principal": "Arena",
    "provincia": "Tucuman",
    "etapa": "produccion",
    "empresa_operadora": "Tucuman Aridos SH",
    "pais_empresa": "",
    "capital_australiano": "false",
    "tipo": "no_metalifero"
  },
  {
    "id": "nm-la-blanquita-ll",
    "nombre": "La Blanquita ll",
    "lat": "-26.74294722",
    "lon": "-65.12918611",
    "mineral_principal": "Arena",
    "provincia": "Tucuman",
    "etapa": "produccion",
    "empresa_operadora": "López Fornando Luis",
    "pais_empresa": "",
    "capital_australiano": "false",
    "tipo": "no_metalifero"
  },
  {
    "id": "nm-cuevas",
    "nombre": "Cuevas",
    "lat": "-26.93169167",
    "lon": "-65.21379167",
    "mineral_principal": "Arena",
    "provincia": "Tucuman",
    "etapa": "produccion",
    "empresa_operadora": "Cuevas",
    "pais_empresa": "",
    "capital_australiano": "false",
    "tipo": "no_metalifero"
  },
  {
    "id": "nm-vipos",
    "nombre": "Vipos",
    "lat": "-26.47856389",
    "lon": "-65.31003333",
    "mineral_principal": "Arena",
    "provincia": "Tucuman",
    "etapa": "produccion",
    "empresa_operadora": "D'Andrea Fernando E.",
    "pais_empresa": "",
    "capital_australiano": "false",
    "tipo": "no_metalifero"
  },
  {
    "id": "nm-las-tipas",
    "nombre": "Las Tipas",
    "lat": "-26.65568611",
    "lon": "-65.39226944",
    "mineral_principal": "Arena",
    "provincia": "Tucuman",
    "etapa": "produccion",
    "empresa_operadora": "Julio Plano",
    "pais_empresa": "",
    "capital_australiano": "false",
    "tipo": "no_metalifero"
  },
  {
    "id": "nm-ca-as-y-semilla",
    "nombre": "Cañas y Semilla",
    "lat": "-26.94535556",
    "lon": "-65.20979167",
    "mineral_principal": "Arena",
    "provincia": "Tucuman",
    "etapa": "produccion",
    "empresa_operadora": "Isas Carlos - Cañas y Semilla",
    "pais_empresa": "",
    "capital_australiano": "false",
    "tipo": "no_metalifero"
  },
  {
    "id": "nm-aridos-san-gabriel",
    "nombre": "Aridos San Gabriel",
    "lat": "-26.98148611",
    "lon": "-65.23310278",
    "mineral_principal": "Arena",
    "provincia": "Tucuman",
    "etapa": "produccion",
    "empresa_operadora": "Jacoub Omar Angel",
    "pais_empresa": "",
    "capital_australiano": "false",
    "tipo": "no_metalifero"
  },
  {
    "id": "nm-ova",
    "nombre": "Ova",
    "lat": "-26.74930278",
    "lon": "-65.29650278",
    "mineral_principal": "Arena",
    "provincia": "Tucuman",
    "etapa": "produccion",
    "empresa_operadora": "OVA SRL",
    "pais_empresa": "",
    "capital_australiano": "false",
    "tipo": "no_metalifero"
  },
  {
    "id": "nm-ova",
    "nombre": "Ova",
    "lat": "-26.62786389",
    "lon": "-65.05163889",
    "mineral_principal": "Arena",
    "provincia": "Tucuman",
    "etapa": "produccion",
    "empresa_operadora": "OVA SRL",
    "pais_empresa": "",
    "capital_australiano": "false",
    "tipo": "no_metalifero"
  },
  {
    "id": "nm-la-victoria",
    "nombre": "La Victoria",
    "lat": "-27.02629444",
    "lon": "-65.41626389",
    "mineral_principal": "Arena",
    "provincia": "Tucuman",
    "etapa": "produccion",
    "empresa_operadora": "Haro Matias Nicolás",
    "pais_empresa": "",
    "capital_australiano": "false",
    "tipo": "no_metalifero"
  },
  {
    "id": "nm-la-tala",
    "nombre": "La Tala",
    "lat": "-27.02282222",
    "lon": "-65.26765",
    "mineral_principal": "Arena",
    "provincia": "Tucuman",
    "etapa": "produccion",
    "empresa_operadora": "Zivillica Marcelo A.",
    "pais_empresa": "",
    "capital_australiano": "false",
    "tipo": "no_metalifero"
  },
  {
    "id": "nm-ex-cantera-relleno",
    "nombre": "Ex cantera - Relleno",
    "lat": "-26.78416111",
    "lon": "-65.16096111",
    "mineral_principal": "Arena",
    "provincia": "Tucuman",
    "etapa": "produccion",
    "empresa_operadora": "Aridos del Salí SRL",
    "pais_empresa": "",
    "capital_australiano": "false",
    "tipo": "no_metalifero"
  },
  {
    "id": "nm-san-andr-s",
    "nombre": "San Andrés",
    "lat": "-26.91218056",
    "lon": "-65.21171389",
    "mineral_principal": "Arena",
    "provincia": "Tucuman",
    "etapa": "produccion",
    "empresa_operadora": "Aridos del Salí SRL",
    "pais_empresa": "",
    "capital_australiano": "false",
    "tipo": "no_metalifero"
  },
  {
    "id": "nm-finca-moyano",
    "nombre": "Finca Moyano",
    "lat": "-26.71778056",
    "lon": "-65.27873611",
    "mineral_principal": "Arena",
    "provincia": "Tucuman",
    "etapa": "produccion",
    "empresa_operadora": "Moyano Erbetta Federico",
    "pais_empresa": "",
    "capital_australiano": "false",
    "tipo": "no_metalifero"
  },
  {
    "id": "nm-el-ejecutivo",
    "nombre": "El Ejecutivo",
    "lat": "-27.02274444",
    "lon": "-65.42714444",
    "mineral_principal": "Arena",
    "provincia": "Tucuman",
    "etapa": "produccion",
    "empresa_operadora": "El Ejecutivo S.R.L.",
    "pais_empresa": "",
    "capital_australiano": "false",
    "tipo": "no_metalifero"
  },
  {
    "id": "nm-jerico",
    "nombre": "Jerico",
    "lat": "-27.26294444",
    "lon": "-65.61187778",
    "mineral_principal": "Arena",
    "provincia": "Tucuman",
    "etapa": "produccion",
    "empresa_operadora": "Jerico SRL",
    "pais_empresa": "",
    "capital_australiano": "false",
    "tipo": "no_metalifero"
  },
  {
    "id": "nm-la-candelaria",
    "nombre": "La Candelaria",
    "lat": "-27.32778333",
    "lon": "-65.63720833",
    "mineral_principal": "Arena",
    "provincia": "Tucuman",
    "etapa": "produccion",
    "empresa_operadora": "Jerico SRL",
    "pais_empresa": "",
    "capital_australiano": "false",
    "tipo": "no_metalifero"
  },
  {
    "id": "nm-san-cayetano",
    "nombre": "San Cayetano",
    "lat": "-26.87288611",
    "lon": "-65.70547778",
    "mineral_principal": "Arena",
    "provincia": "Tucuman",
    "etapa": "produccion",
    "empresa_operadora": "Munic. Tafí del Valle",
    "pais_empresa": "",
    "capital_australiano": "false",
    "tipo": "no_metalifero"
  },
  {
    "id": "nm-costa-i",
    "nombre": "Costa I",
    "lat": "-26.860175",
    "lon": "-65.67111389",
    "mineral_principal": "Arena",
    "provincia": "Tucuman",
    "etapa": "produccion",
    "empresa_operadora": "Munic. Tafí del Valle",
    "pais_empresa": "",
    "capital_australiano": "false",
    "tipo": "no_metalifero"
  },
  {
    "id": "nm-com-san-pablo",
    "nombre": "Com. San Pablo",
    "lat": "-26.91175278",
    "lon": "-65.346275",
    "mineral_principal": "Arena",
    "provincia": "Tucuman",
    "etapa": "produccion",
    "empresa_operadora": "Com San Pablo - Va. Nougués",
    "pais_empresa": "",
    "capital_australiano": "false",
    "tipo": "no_metalifero"
  },
  {
    "id": "nm-la-ca-ada",
    "nombre": "La Cañada",
    "lat": "-26.65958056",
    "lon": "-65.42186667",
    "mineral_principal": "Arena",
    "provincia": "Tucuman",
    "etapa": "produccion",
    "empresa_operadora": "Sáez Servicios SRL",
    "pais_empresa": "",
    "capital_australiano": "false",
    "tipo": "no_metalifero"
  },
  {
    "id": "nm-las-marias",
    "nombre": "Las Marias",
    "lat": "-27.71741667",
    "lon": "-65.58726667",
    "mineral_principal": "Arena",
    "provincia": "Tucuman",
    "etapa": "produccion",
    "empresa_operadora": "Castro Maria Ines",
    "pais_empresa": "",
    "capital_australiano": "false",
    "tipo": "no_metalifero"
  },
  {
    "id": "nm-el-naranjo-sur",
    "nombre": "El Naranjo Sur",
    "lat": "-26.66926111",
    "lon": "-65.06519167",
    "mineral_principal": "Arena",
    "provincia": "Tucuman",
    "etapa": "produccion",
    "empresa_operadora": "Sandoval Cabrera Norma Estela",
    "pais_empresa": "",
    "capital_australiano": "false",
    "tipo": "no_metalifero"
  },
  {
    "id": "nm-el-cacique",
    "nombre": "El Cacique",
    "lat": "-26.71566667",
    "lon": "-65.09114444",
    "mineral_principal": "Arena",
    "provincia": "Tucuman",
    "etapa": "produccion",
    "empresa_operadora": "El Cacique SRL",
    "pais_empresa": "",
    "capital_australiano": "false",
    "tipo": "no_metalifero"
  },
  {
    "id": "nm-san-agustin",
    "nombre": "San Agustin",
    "lat": "-26.81281667",
    "lon": "-65.3317",
    "mineral_principal": "Arena",
    "provincia": "Tucuman",
    "etapa": "produccion",
    "empresa_operadora": "Castelluccio Gerardo",
    "pais_empresa": "",
    "capital_australiano": "false",
    "tipo": "no_metalifero"
  },
  {
    "id": "nm-don-honorio",
    "nombre": "Don Honorio",
    "lat": "-26.68378611",
    "lon": "-65.07311667",
    "mineral_principal": "Arena",
    "provincia": "Tucuman",
    "etapa": "produccion",
    "empresa_operadora": "Benito Mercedes Beatriz",
    "pais_empresa": "",
    "capital_australiano": "false",
    "tipo": "no_metalifero"
  },
  {
    "id": "nm-munic-tafi-viejo",
    "nombre": "Munic. Tafi Viejo",
    "lat": "-26.73303333",
    "lon": "-65.28826944",
    "mineral_principal": "Arena",
    "provincia": "Tucuman",
    "etapa": "produccion",
    "empresa_operadora": "Munic. Tafí Viejo",
    "pais_empresa": "",
    "capital_australiano": "false",
    "tipo": "no_metalifero"
  },
  {
    "id": "nm-munic-y-buena",
    "nombre": "Munic. Y. Buena",
    "lat": "-26.79870833",
    "lon": "-65.32865",
    "mineral_principal": "Arena",
    "provincia": "Tucuman",
    "etapa": "produccion",
    "empresa_operadora": "Munic. Yerba Buena",
    "pais_empresa": "",
    "capital_australiano": "false",
    "tipo": "no_metalifero"
  },
  {
    "id": "nm-tte-berdina",
    "nombre": "Tte. Berdina",
    "lat": "-27.04121944",
    "lon": "-65.48223333",
    "mineral_principal": "Arena",
    "provincia": "Tucuman",
    "etapa": "produccion",
    "empresa_operadora": "Mena Fernando Rafael",
    "pais_empresa": "",
    "capital_australiano": "false",
    "tipo": "no_metalifero"
  },
  {
    "id": "nm-caspichango",
    "nombre": "Caspichango",
    "lat": "-27.06315833",
    "lon": "-65.47906944",
    "mineral_principal": "Arena",
    "provincia": "Tucuman",
    "etapa": "produccion",
    "empresa_operadora": "Mena Fernando Rafael",
    "pais_empresa": "",
    "capital_australiano": "false",
    "tipo": "no_metalifero"
  },
  {
    "id": "nm-el-naranjo",
    "nombre": "El Naranjo",
    "lat": "-26.63973611",
    "lon": "-65.05471944",
    "mineral_principal": "Arena",
    "provincia": "Tucuman",
    "etapa": "produccion",
    "empresa_operadora": "Coop Trab Agrop del Este",
    "pais_empresa": "",
    "capital_australiano": "false",
    "tipo": "no_metalifero"
  },
  {
    "id": "nm-ezequiel-campero",
    "nombre": "Ezequiel Campero",
    "lat": "-26.69694444",
    "lon": "-65.27205556",
    "mineral_principal": "Arena",
    "provincia": "Tucuman",
    "etapa": "produccion",
    "empresa_operadora": "Vaz S.A.S.",
    "pais_empresa": "",
    "capital_australiano": "false",
    "tipo": "no_metalifero"
  },
  {
    "id": "nm-medina",
    "nombre": "Medina",
    "lat": "-26.54366111",
    "lon": "-65.02638889",
    "mineral_principal": "Arena",
    "provincia": "Tucuman",
    "etapa": "produccion",
    "empresa_operadora": "Leandro G. Alonso",
    "pais_empresa": "",
    "capital_australiano": "false",
    "tipo": "no_metalifero"
  },
  {
    "id": "nm-la-sala",
    "nombre": "La Sala",
    "lat": "-26.57058889",
    "lon": "-65.02236944",
    "mineral_principal": "Arena",
    "provincia": "Tucuman",
    "etapa": "produccion",
    "empresa_operadora": "Coop Trab Agrop del Este",
    "pais_empresa": "",
    "capital_australiano": "false",
    "tipo": "no_metalifero"
  },
  {
    "id": "nm-san-nicolas",
    "nombre": "San Nicolas",
    "lat": "-26.52565278",
    "lon": "-64.879475",
    "mineral_principal": "Yeso",
    "provincia": "Tucuman",
    "etapa": "produccion",
    "empresa_operadora": "Cielorraso del Norte SRL",
    "pais_empresa": "",
    "capital_australiano": "false",
    "tipo": "no_metalifero"
  },
  {
    "id": "nm-ceramica-marcos-paz",
    "nombre": "Ceramica Marcos Paz",
    "lat": "-26.75424167",
    "lon": "-65.08550556",
    "mineral_principal": "Arcillas",
    "provincia": "Tucuman",
    "etapa": "produccion",
    "empresa_operadora": "Cerámica M. Paz S.R.L.",
    "pais_empresa": "",
    "capital_australiano": "false",
    "tipo": "no_metalifero"
  },
  {
    "id": "nm-ingrid-astrid",
    "nombre": "Ingrid-Astrid",
    "lat": "-26.7140056",
    "lon": "-65.1478972",
    "mineral_principal": "Sulfato de sodio",
    "provincia": "Tucuman",
    "etapa": "produccion",
    "empresa_operadora": "INDUSTRIAS QUIMICAS Y MINERAS TIMBO SA",
    "pais_empresa": "",
    "capital_australiano": "false",
    "tipo": "no_metalifero"
  },
  {
    "id": "nm-turbal-patagonia-sur",
    "nombre": "Turbal Patagonia Sur",
    "lat": "-54.541",
    "lon": "-67.012",
    "mineral_principal": "Turba",
    "provincia": "Tierra del Fuego, Antártida e Islas del Atlántico Sur",
    "etapa": "produccion",
    "empresa_operadora": "PAEZ, Fabio Gabriel",
    "pais_empresa": "",
    "capital_australiano": "false",
    "tipo": "no_metalifero"
  },
  {
    "id": "nm-turbera-humus-del-lago",
    "nombre": "Turbera Humus del Lago",
    "lat": "-54.62",
    "lon": "-67.502",
    "mineral_principal": "Turba",
    "provincia": "Tierra del Fuego, Antártida e Islas del Atlántico Sur",
    "etapa": "produccion",
    "empresa_operadora": "GUEVARA Alberto Daniel",
    "pais_empresa": "",
    "capital_australiano": "false",
    "tipo": "no_metalifero"
  },
  {
    "id": "nm-turbera-laco-s",
    "nombre": "Turbera Laco's",
    "lat": "-54.514",
    "lon": "-66.925",
    "mineral_principal": "Turba",
    "provincia": "Tierra del Fuego, Antártida e Islas del Atlántico Sur",
    "etapa": "produccion",
    "empresa_operadora": "LACOVARA Jorge",
    "pais_empresa": "",
    "capital_australiano": "false",
    "tipo": "no_metalifero"
  },
  {
    "id": "nm-turbera-edb",
    "nombre": "Turbera EDB",
    "lat": "-54.535",
    "lon": "-66.963",
    "mineral_principal": "Turba",
    "provincia": "Tierra del Fuego, Antártida e Islas del Atlántico Sur",
    "etapa": "produccion",
    "empresa_operadora": "BATISTA LIMA, Eugelia",
    "pais_empresa": "",
    "capital_australiano": "false",
    "tipo": "no_metalifero"
  },
  {
    "id": "nm-turbera-arak",
    "nombre": "Turbera Arak",
    "lat": "-54.624",
    "lon": "-67.372",
    "mineral_principal": "Turba",
    "provincia": "Tierra del Fuego, Antártida e Islas del Atlántico Sur",
    "etapa": "produccion",
    "empresa_operadora": "FONMAS S.R.L.",
    "pais_empresa": "",
    "capital_australiano": "false",
    "tipo": "no_metalifero"
  },
  {
    "id": "nm-kaiwet",
    "nombre": "Kaiwet",
    "lat": "-54.503",
    "lon": "-67.206",
    "mineral_principal": "Turba",
    "provincia": "Tierra del Fuego, Antártida e Islas del Atlántico Sur",
    "etapa": "produccion",
    "empresa_operadora": "SIMONETTA, Nestor",
    "pais_empresa": "",
    "capital_australiano": "false",
    "tipo": "no_metalifero"
  },
  {
    "id": "nm-establecimiento-d-y-a",
    "nombre": "Establecimiento D y A",
    "lat": "-54.52",
    "lon": "-67.016",
    "mineral_principal": "Turba",
    "provincia": "Tierra del Fuego, Antártida e Islas del Atlántico Sur",
    "etapa": "produccion",
    "empresa_operadora": "CANETE, Ramon Antonio",
    "pais_empresa": "",
    "capital_australiano": "false",
    "tipo": "no_metalifero"
  },
  {
    "id": "nm-agrotolhuin",
    "nombre": "Agrotolhuin",
    "lat": "-54.545",
    "lon": "-66.981",
    "mineral_principal": "Turba",
    "provincia": "Tierra del Fuego, Antártida e Islas del Atlántico Sur",
    "etapa": "produccion",
    "empresa_operadora": "PRODUCTORA COMERCIALIZADORA MARTINEZ SRL",
    "pais_empresa": "",
    "capital_australiano": "false",
    "tipo": "no_metalifero"
  },
  {
    "id": "nm-santa-monica",
    "nombre": "Santa Monica",
    "lat": "-54.539",
    "lon": "-66.955",
    "mineral_principal": "Turba",
    "provincia": "Tierra del Fuego, Antártida e Islas del Atlántico Sur",
    "etapa": "produccion",
    "empresa_operadora": "BARRIA, Monica Catalina",
    "pais_empresa": "",
    "capital_australiano": "false",
    "tipo": "no_metalifero"
  },
  {
    "id": "nm-turbera-lucas",
    "nombre": "Turbera Lucas",
    "lat": "-54.527",
    "lon": "-66.887",
    "mineral_principal": "Turba",
    "provincia": "Tierra del Fuego, Antártida e Islas del Atlántico Sur",
    "etapa": "produccion",
    "empresa_operadora": "Sucesión DOS SANTOS",
    "pais_empresa": "",
    "capital_australiano": "false",
    "tipo": "no_metalifero"
  },
  {
    "id": "nm-terra-australis",
    "nombre": "Terra Australis",
    "lat": "-54.619",
    "lon": "-67.765",
    "mineral_principal": "Turba",
    "provincia": "Tierra del Fuego, Antártida e Islas del Atlántico Sur",
    "etapa": "produccion",
    "empresa_operadora": "ROIG, Claudio Eduardo",
    "pais_empresa": "",
    "capital_australiano": "false",
    "tipo": "no_metalifero"
  },
  {
    "id": "nm-compofertil",
    "nombre": "Compofertil",
    "lat": "-54.539",
    "lon": "-66.98",
    "mineral_principal": "Turba",
    "provincia": "Tierra del Fuego, Antártida e Islas del Atlántico Sur",
    "etapa": "produccion",
    "empresa_operadora": "RIVAS, Aldo Ramon",
    "pais_empresa": "",
    "capital_australiano": "false",
    "tipo": "no_metalifero"
  },
  {
    "id": "nm-turbera-la-correntina",
    "nombre": "Turbera La Correntina",
    "lat": "-54.55",
    "lon": "-66.988",
    "mineral_principal": "Turba",
    "provincia": "Tierra del Fuego, Antártida e Islas del Atlántico Sur",
    "etapa": "produccion",
    "empresa_operadora": "RUIZ, Mauricio Antonio",
    "pais_empresa": "",
    "capital_australiano": "false",
    "tipo": "no_metalifero"
  },
  {
    "id": "nm-kachem",
    "nombre": "Kachem",
    "lat": "-54.499",
    "lon": "-67.154",
    "mineral_principal": "Turba",
    "provincia": "Tierra del Fuego, Antártida e Islas del Atlántico Sur",
    "etapa": "produccion",
    "empresa_operadora": "OLDEMBURG, Ernesto Carlos",
    "pais_empresa": "",
    "capital_australiano": "false",
    "tipo": "no_metalifero"
  },
  {
    "id": "nm-turbera-laguna-negra",
    "nombre": "Turbera Laguna Negra",
    "lat": "-54.526",
    "lon": "-66.949",
    "mineral_principal": "Turba",
    "provincia": "Tierra del Fuego, Antártida e Islas del Atlántico Sur",
    "etapa": "produccion",
    "empresa_operadora": "OLDEMBURG, Juan Francisco",
    "pais_empresa": "",
    "capital_australiano": "false",
    "tipo": "no_metalifero"
  },
  {
    "id": "nm-catalina-ii",
    "nombre": "Catalina II",
    "lat": "-54.563",
    "lon": "-66.962",
    "mineral_principal": "Turba",
    "provincia": "Tierra del Fuego, Antártida e Islas del Atlántico Sur",
    "etapa": "produccion",
    "empresa_operadora": "CARDOZO, Anibal",
    "pais_empresa": "",
    "capital_australiano": "false",
    "tipo": "no_metalifero"
  },
  {
    "id": "nm-turbera-atlantico",
    "nombre": "Turbera Atlantico",
    "lat": "-54.504",
    "lon": "-67.144",
    "mineral_principal": "Turba",
    "provincia": "Tierra del Fuego, Antártida e Islas del Atlántico Sur",
    "etapa": "produccion",
    "empresa_operadora": "CARDOZO, Anibal",
    "pais_empresa": "",
    "capital_australiano": "false",
    "tipo": "no_metalifero"
  },
  {
    "id": "nm-la-july",
    "nombre": "La July",
    "lat": "-54.53",
    "lon": "-66.991",
    "mineral_principal": "Turba",
    "provincia": "Tierra del Fuego, Antártida e Islas del Atlántico Sur",
    "etapa": "produccion",
    "empresa_operadora": "MINERA TERRAFERTIL FUEGUINA S.R.L.",
    "pais_empresa": "",
    "capital_australiano": "false",
    "tipo": "no_metalifero"
  },
  {
    "id": "nm-turbera-amt",
    "nombre": "Turbera AMT",
    "lat": "-54.493",
    "lon": "-67.156",
    "mineral_principal": "Turba",
    "provincia": "Tierra del Fuego, Antártida e Islas del Atlántico Sur",
    "etapa": "produccion",
    "empresa_operadora": "Sucesión DOS SANTOS",
    "pais_empresa": "",
    "capital_australiano": "false",
    "tipo": "no_metalifero"
  },
  {
    "id": "nm-yacimiento-te-al-em-i-c-c",
    "nombre": "Yacimiento TE-AL-EM I.C.C.",
    "lat": "-54.506",
    "lon": "-67.152",
    "mineral_principal": "Turba",
    "provincia": "Tierra del Fuego, Antártida e Islas del Atlántico Sur",
    "etapa": "produccion",
    "empresa_operadora": "TEUBER, Danilo Fabian",
    "pais_empresa": "",
    "capital_australiano": "false",
    "tipo": "no_metalifero"
  },
  {
    "id": "nm-turbera-valle-de-beraca",
    "nombre": "Turbera Valle de Beraca",
    "lat": "-54.627",
    "lon": "-67.384",
    "mineral_principal": "Turba",
    "provincia": "Tierra del Fuego, Antártida e Islas del Atlántico Sur",
    "etapa": "produccion",
    "empresa_operadora": "AMESTOY, Horacio",
    "pais_empresa": "",
    "capital_australiano": "false",
    "tipo": "no_metalifero"
  },
  {
    "id": "nm-turbera-transcontinental",
    "nombre": "Turbera Transcontinental",
    "lat": "-54.523",
    "lon": "-66.939",
    "mineral_principal": "Turba",
    "provincia": "Tierra del Fuego, Antártida e Islas del Atlántico Sur",
    "etapa": "produccion",
    "empresa_operadora": "HERRERA Hector",
    "pais_empresa": "",
    "capital_australiano": "false",
    "tipo": "no_metalifero"
  },
  {
    "id": "nm-turbera-sphagnum-fueguina-s-a",
    "nombre": "Turbera Sphagnum Fueguina S.A.",
    "lat": "-54.53",
    "lon": "-66.967",
    "mineral_principal": "Turba",
    "provincia": "Tierra del Fuego, Antártida e Islas del Atlántico Sur",
    "etapa": "produccion",
    "empresa_operadora": "SPHAGNUM FUEGUINA S.A.",
    "pais_empresa": "",
    "capital_australiano": "false",
    "tipo": "no_metalifero"
  },
  {
    "id": "nm-la-inesa",
    "nombre": "La Inesa",
    "lat": "-54.541",
    "lon": "-67.023",
    "mineral_principal": "Turba",
    "provincia": "Tierra del Fuego, Antártida e Islas del Atlántico Sur",
    "etapa": "produccion",
    "empresa_operadora": "ROMANO, Juan Manuel",
    "pais_empresa": "",
    "capital_australiano": "false",
    "tipo": "no_metalifero"
  },
  {
    "id": "nm-valen-martu",
    "nombre": "Valen Martu",
    "lat": "-54.517",
    "lon": "-66.983",
    "mineral_principal": "Turba",
    "provincia": "Tierra del Fuego, Antártida e Islas del Atlántico Sur",
    "etapa": "produccion",
    "empresa_operadora": "MINERA TERRAFERTIL FUEGUINA S.R.L.",
    "pais_empresa": "",
    "capital_australiano": "false",
    "tipo": "no_metalifero"
  },
  {
    "id": "nm-turbera-del-sur",
    "nombre": "Turbera Del Sur",
    "lat": "-54.525",
    "lon": "-66.96",
    "mineral_principal": "Turba",
    "provincia": "Tierra del Fuego, Antártida e Islas del Atlántico Sur",
    "etapa": "produccion",
    "empresa_operadora": "CARDOZO, Rafael",
    "pais_empresa": "",
    "capital_australiano": "false",
    "tipo": "no_metalifero"
  },
  {
    "id": "nm-turbera-sara",
    "nombre": "Turbera Sara",
    "lat": "-54.551",
    "lon": "-66.963",
    "mineral_principal": "Turba",
    "provincia": "Tierra del Fuego, Antártida e Islas del Atlántico Sur",
    "etapa": "produccion",
    "empresa_operadora": "ESPINOZA de M., Rosa",
    "pais_empresa": "",
    "capital_australiano": "false",
    "tipo": "no_metalifero"
  },
  {
    "id": "nm-monte-quemado",
    "nombre": "Monte Quemado",
    "lat": "-54.629",
    "lon": "-67.512",
    "mineral_principal": "Triturados pétreos",
    "provincia": "Tierra del Fuego, Antártida e Islas del Atlántico Sur",
    "etapa": "produccion",
    "empresa_operadora": "Constructora Dos Arroyos SA",
    "pais_empresa": "",
    "capital_australiano": "false",
    "tipo": "no_metalifero"
  },
  {
    "id": "nm-lp",
    "nombre": "LP",
    "lat": "-54.42",
    "lon": "-67.214",
    "mineral_principal": "Triturados pétreos",
    "provincia": "Tierra del Fuego, Antártida e Islas del Atlántico Sur",
    "etapa": "produccion",
    "empresa_operadora": "Lenga Patagonia SA",
    "pais_empresa": "",
    "capital_australiano": "false",
    "tipo": "no_metalifero"
  },
  {
    "id": "nm-lf-2010",
    "nombre": "LF 2010",
    "lat": "-53.978",
    "lon": "-67.524",
    "mineral_principal": "Triturados pétreos",
    "provincia": "Tierra del Fuego, Antártida e Islas del Atlántico Sur",
    "etapa": "evaluación_económica_preliminar",
    "empresa_operadora": "CAMPOS DE ALVEAR, Enrique",
    "pais_empresa": "",
    "capital_australiano": "false",
    "tipo": "no_metalifero"
  },
  {
    "id": "nm-lf-2012",
    "nombre": "LF 2012",
    "lat": "-53.993",
    "lon": "-67.539",
    "mineral_principal": "Triturados pétreos",
    "provincia": "Tierra del Fuego, Antártida e Islas del Atlántico Sur",
    "etapa": "",
    "empresa_operadora": "Sociedad Anónima Ganadera y Financiera Bridges & Reynolds",
    "pais_empresa": "",
    "capital_australiano": "false",
    "tipo": "no_metalifero"
  },
  {
    "id": "nm-pioneros-fueguinos",
    "nombre": "Pioneros Fueguinos",
    "lat": "-54.615",
    "lon": "-67.735",
    "mineral_principal": "Triturados pétreos",
    "provincia": "Tierra del Fuego, Antártida e Islas del Atlántico Sur",
    "etapa": "evaluación_económica_preliminar",
    "empresa_operadora": "IVANDIC FIQUE, Jorge",
    "pais_empresa": "",
    "capital_australiano": "false",
    "tipo": "no_metalifero"
  },
  {
    "id": "nm-el-salvador-ii",
    "nombre": "El Salvador II",
    "lat": "-53.585",
    "lon": "-68.532",
    "mineral_principal": "Triturados pétreos",
    "provincia": "Tierra del Fuego, Antártida e Islas del Atlántico Sur",
    "etapa": "produccion",
    "empresa_operadora": "FEFERBAUM, Jorge",
    "pais_empresa": "",
    "capital_australiano": "false",
    "tipo": "no_metalifero"
  },
  {
    "id": "nm-el-salvador-iii",
    "nombre": "El Salvador III",
    "lat": "-53.702",
    "lon": "-68.546",
    "mineral_principal": "Triturados pétreos",
    "provincia": "Tierra del Fuego, Antártida e Islas del Atlántico Sur",
    "etapa": "produccion",
    "empresa_operadora": "FEFERBAUM, Jorge",
    "pais_empresa": "",
    "capital_australiano": "false",
    "tipo": "no_metalifero"
  },
  {
    "id": "nm-la-norma",
    "nombre": "LA NORMA",
    "lat": "-32.863179",
    "lon": "-65.657467",
    "mineral_principal": "Feldespato",
    "provincia": "San Luis",
    "etapa": "produccion",
    "empresa_operadora": "PIEDRA GRANDE S.A.M.I.C.A. y F.",
    "pais_empresa": "",
    "capital_australiano": "false",
    "tipo": "no_metalifero"
  },
  {
    "id": "nm-el-coraje",
    "nombre": "EL CORAJE",
    "lat": "-32.387161",
    "lon": "-65.657467",
    "mineral_principal": "Feldespato",
    "provincia": "San Luis",
    "etapa": "produccion",
    "empresa_operadora": "PIEDRA GRANDE S.A.M.I.C.A. y F.",
    "pais_empresa": "",
    "capital_australiano": "false",
    "tipo": "no_metalifero"
  },
  {
    "id": "nm-iguazu",
    "nombre": "IGUAZU",
    "lat": "-32.760741",
    "lon": "-65.920641",
    "mineral_principal": "Feldespato",
    "provincia": "San Luis",
    "etapa": "produccion",
    "empresa_operadora": "PIEDRA GRANDE S.A.M.I.C.A. y F.",
    "pais_empresa": "",
    "capital_australiano": "false",
    "tipo": "no_metalifero"
  },
  {
    "id": "nm-rey-david",
    "nombre": "REY DAVID",
    "lat": "-32.367594",
    "lon": "-65.55542",
    "mineral_principal": "Feldespato",
    "provincia": "San Luis",
    "etapa": "produccion",
    "empresa_operadora": "PIEDRA GRANDE S.A.M.I.C.A. y F.",
    "pais_empresa": "",
    "capital_australiano": "false",
    "tipo": "no_metalifero"
  },
  {
    "id": "nm-la-yoqueta",
    "nombre": "LA YOQUETA",
    "lat": "-32.611693",
    "lon": "-65.527089",
    "mineral_principal": "Feldespato",
    "provincia": "San Luis",
    "etapa": "produccion",
    "empresa_operadora": "PIEDRA GRANDE S.A.M.I.C.A. y F.",
    "pais_empresa": "",
    "capital_australiano": "false",
    "tipo": "no_metalifero"
  },
  {
    "id": "nm-la-puntillosa",
    "nombre": "LA PUNTILLOSA",
    "lat": "-32.348429",
    "lon": "-65.547976",
    "mineral_principal": "Feldespato",
    "provincia": "San Luis",
    "etapa": "produccion",
    "empresa_operadora": "PIEDRA GRANDE S.A.M.I.C.A. y F.",
    "pais_empresa": "",
    "capital_australiano": "false",
    "tipo": "no_metalifero"
  },
  {
    "id": "nm-la-puntillosa-poniente",
    "nombre": "LA PUNTILLOSA PONIENTE",
    "lat": "-32.346579",
    "lon": "-65.548277",
    "mineral_principal": "Feldespato",
    "provincia": "San Luis",
    "etapa": "produccion",
    "empresa_operadora": "PIEDRA GRANDE S.A.M.I.C.A. y F.",
    "pais_empresa": "",
    "capital_australiano": "false",
    "tipo": "no_metalifero"
  },
  {
    "id": "nm-virgen-del-milagro",
    "nombre": "VIRGEN DEL MILAGRO",
    "lat": "-33.136529",
    "lon": "-65.196792",
    "mineral_principal": "Feldespato",
    "provincia": "San Luis",
    "etapa": "produccion",
    "empresa_operadora": "PIEDRA GRANDE S.A.M.I.C.A. y F.",
    "pais_empresa": "",
    "capital_australiano": "false",
    "tipo": "no_metalifero"
  },
  {
    "id": "nm-cecer",
    "nombre": "CECER",
    "lat": "-32.933552",
    "lon": "-65.671276",
    "mineral_principal": "Feldespato",
    "provincia": "San Luis",
    "etapa": "produccion",
    "empresa_operadora": "PIEDRA GRANDE S.A.M.I.C.A. y F.",
    "pais_empresa": "",
    "capital_australiano": "false",
    "tipo": "no_metalifero"
  },
  {
    "id": "nm-la-viquita",
    "nombre": "LA VIQUITA",
    "lat": "-32.85824",
    "lon": "-65.110498",
    "mineral_principal": "Feldespato",
    "provincia": "San Luis",
    "etapa": "produccion",
    "empresa_operadora": "PIEDRA GRANDE S.A.M.I.C.A. y F.",
    "pais_empresa": "",
    "capital_australiano": "false",
    "tipo": "no_metalifero"
  },
  {
    "id": "nm-genidey",
    "nombre": "GENIDEY",
    "lat": "-32.905035",
    "lon": "-65.612736",
    "mineral_principal": "Feldespato",
    "provincia": "San Luis",
    "etapa": "produccion",
    "empresa_operadora": "PIEDRA GRANDE S.A.M.I.C.A. y F.",
    "pais_empresa": "",
    "capital_australiano": "false",
    "tipo": "no_metalifero"
  },
  {
    "id": "nm-juan-boliche",
    "nombre": "JUAN BOLICHE",
    "lat": "-32.892009",
    "lon": "-65.627177",
    "mineral_principal": "Feldespato",
    "provincia": "San Luis",
    "etapa": "produccion",
    "empresa_operadora": "PIEDRA GRANDE S.A.M.I.C.A. y F.",
    "pais_empresa": "",
    "capital_australiano": "false",
    "tipo": "no_metalifero"
  },
  {
    "id": "nm-clary",
    "nombre": "CLARY",
    "lat": "-32.896499",
    "lon": "-65.630081",
    "mineral_principal": "Feldespato",
    "provincia": "San Luis",
    "etapa": "produccion",
    "empresa_operadora": "PIEDRA GRANDE S.A.M.I.C.A. y F.",
    "pais_empresa": "",
    "capital_australiano": "false",
    "tipo": "no_metalifero"
  },
  {
    "id": "nm-independencia-argentina",
    "nombre": "INDEPENDENCIA ARGENTINA",
    "lat": "-32.905487",
    "lon": "-65.924858",
    "mineral_principal": "Feldespato",
    "provincia": "San Luis",
    "etapa": "produccion",
    "empresa_operadora": "PIEDRA GRANDE S.A.M.I.C.A. y F.",
    "pais_empresa": "",
    "capital_australiano": "false",
    "tipo": "no_metalifero"
  },
  {
    "id": "nm-san-elias",
    "nombre": "SAN ELIAS",
    "lat": "-32.857858",
    "lon": "-65.120538",
    "mineral_principal": "Feldespato",
    "provincia": "San Luis",
    "etapa": "produccion",
    "empresa_operadora": "PIEDRA GRANDE S.A.M.I.C.A. y F.",
    "pais_empresa": "",
    "capital_australiano": "false",
    "tipo": "no_metalifero"
  },
  {
    "id": "nm-la-yoqueta-norte",
    "nombre": "LA YOQUETA NORTE",
    "lat": "-32.606551",
    "lon": "-65.524136",
    "mineral_principal": "Feldespato",
    "provincia": "San Luis",
    "etapa": "produccion",
    "empresa_operadora": "PIEDRA GRANDE S.A.M.I.C.A. y F.",
    "pais_empresa": "",
    "capital_australiano": "false",
    "tipo": "no_metalifero"
  },
  {
    "id": "nm-la-ideal",
    "nombre": "LA IDEAL",
    "lat": "-33.024987",
    "lon": "-65.726805",
    "mineral_principal": "Feldespato",
    "provincia": "San Luis",
    "etapa": "produccion",
    "empresa_operadora": "PIEDRA GRANDE S.A.M.I.C.A. y F.",
    "pais_empresa": "",
    "capital_australiano": "false",
    "tipo": "no_metalifero"
  },
  {
    "id": "nm-los-mellizos",
    "nombre": "LOS MELLIZOS",
    "lat": "-32.576693",
    "lon": "-65.416216",
    "mineral_principal": "Feldespato",
    "provincia": "San Luis",
    "etapa": "produccion",
    "empresa_operadora": "MINERA MELLIZOS BLANCO SRL",
    "pais_empresa": "",
    "capital_australiano": "false",
    "tipo": "no_metalifero"
  },
  {
    "id": "nm-clavelin",
    "nombre": "CLAVELIN",
    "lat": "-32.443518",
    "lon": "-65.556573",
    "mineral_principal": "Feldespato",
    "provincia": "San Luis",
    "etapa": "mantenimiento",
    "empresa_operadora": "MINERA MELLIZOS BLANCO SRL",
    "pais_empresa": "",
    "capital_australiano": "false",
    "tipo": "no_metalifero"
  },
  {
    "id": "nm-los-cardenales",
    "nombre": "LOS CARDENALES",
    "lat": "-32.549705",
    "lon": "-65.47477",
    "mineral_principal": "Feldespato",
    "provincia": "San Luis",
    "etapa": "mantenimiento",
    "empresa_operadora": "MINERA MELLIZOS BLANCO SRL",
    "pais_empresa": "",
    "capital_australiano": "false",
    "tipo": "no_metalifero"
  },
  {
    "id": "nm-la-iglesia",
    "nombre": "LA IGLESIA",
    "lat": "-32.420302",
    "lon": "-65.521053",
    "mineral_principal": "Feldespato",
    "provincia": "San Luis",
    "etapa": "produccion",
    "empresa_operadora": "MINERA MELLIZOS BLANCO SRL",
    "pais_empresa": "",
    "capital_australiano": "false",
    "tipo": "no_metalifero"
  },
  {
    "id": "nm-juan-y-victoria",
    "nombre": "JUAN Y VICTORIA",
    "lat": "-32.190137",
    "lon": "-65.306184",
    "mineral_principal": "Feldespato",
    "provincia": "San Luis",
    "etapa": "mantenimiento",
    "empresa_operadora": "MINERA MELLIZOS BLANCO SRL",
    "pais_empresa": "",
    "capital_australiano": "false",
    "tipo": "no_metalifero"
  },
  {
    "id": "nm-la-orquidea",
    "nombre": "LA ORQUIDEA",
    "lat": "-33.260471",
    "lon": "-65.544221",
    "mineral_principal": "Cuarzo",
    "provincia": "San Luis",
    "etapa": "produccion",
    "empresa_operadora": "PIEDRAS PUNTANAS SRL",
    "pais_empresa": "",
    "capital_australiano": "false",
    "tipo": "no_metalifero"
  },
  {
    "id": "nm-la-ripiera",
    "nombre": "LA RIPIERA",
    "lat": "-33.261796",
    "lon": "-65.548183",
    "mineral_principal": "Cuarzo",
    "provincia": "San Luis",
    "etapa": "mantenimiento",
    "empresa_operadora": "PIEDRAS PUNTANAS SRL",
    "pais_empresa": "",
    "capital_australiano": "false",
    "tipo": "no_metalifero"
  },
  {
    "id": "nm-don-paco-iii",
    "nombre": "DON PACO III",
    "lat": "-32.715202",
    "lon": "-65.515362",
    "mineral_principal": "Feldespato",
    "provincia": "San Luis",
    "etapa": "produccion",
    "empresa_operadora": "MANSILLA CARLOS",
    "pais_empresa": "",
    "capital_australiano": "false",
    "tipo": "no_metalifero"
  },
  {
    "id": "nm-la-rumari",
    "nombre": "LA RUMARI",
    "lat": "-32.84919",
    "lon": "-65.674552",
    "mineral_principal": "Feldespato",
    "provincia": "San Luis",
    "etapa": "produccion",
    "empresa_operadora": "Lara Eva Allende",
    "pais_empresa": "",
    "capital_australiano": "false",
    "tipo": "no_metalifero"
  },
  {
    "id": "nm-leonela",
    "nombre": "LEONELA",
    "lat": "-32.895269",
    "lon": "-65.838451",
    "mineral_principal": "Caliza",
    "provincia": "San Luis",
    "etapa": "produccion",
    "empresa_operadora": "CEMENTOS AVELLANEDA S.A.",
    "pais_empresa": "",
    "capital_australiano": "false",
    "tipo": "no_metalifero"
  },
  {
    "id": "nm-cantera-cementos-avellaneda",
    "nombre": "CANTERA CEMENTOS AVELLANEDA",
    "lat": "-32.894966",
    "lon": "-66.840902",
    "mineral_principal": "Caliza",
    "provincia": "San Luis",
    "etapa": "produccion",
    "empresa_operadora": "CEMENTOS AVELLANEDA S.A.",
    "pais_empresa": "",
    "capital_australiano": "false",
    "tipo": "no_metalifero"
  },
  {
    "id": "nm-cantera-master-laja",
    "nombre": "CANTERA MASTER LAJA",
    "lat": "-33.111563",
    "lon": "-65.986182",
    "mineral_principal": "Piedra laja",
    "provincia": "San Luis",
    "etapa": "produccion",
    "empresa_operadora": "MASTER LAJA S.A.",
    "pais_empresa": "",
    "capital_australiano": "false",
    "tipo": "no_metalifero"
  },
  {
    "id": "nm-el-latino",
    "nombre": "EL LATINO",
    "lat": "-33.076311",
    "lon": "-65.992506",
    "mineral_principal": "Piedra laja",
    "provincia": "San Luis",
    "etapa": "mantenimiento",
    "empresa_operadora": "",
    "pais_empresa": "",
    "capital_australiano": "false",
    "tipo": "no_metalifero"
  },
  {
    "id": "nm-don-froilan",
    "nombre": "DON FROILAN",
    "lat": "-33.07142",
    "lon": "-65.970029",
    "mineral_principal": "Piedra laja",
    "provincia": "San Luis",
    "etapa": "mantenimiento",
    "empresa_operadora": "",
    "pais_empresa": "",
    "capital_australiano": "false",
    "tipo": "no_metalifero"
  },
  {
    "id": "nm-salinas-del-bebedero",
    "nombre": "SALINAS DEL BEBEDERO",
    "lat": "-33.521985",
    "lon": "-66.660393",
    "mineral_principal": "Cloruro de sodio",
    "provincia": "San Luis",
    "etapa": "produccion",
    "empresa_operadora": "COMPAÑÍA INTRODUCTORA BUENOS AIRES S.A.",
    "pais_empresa": "",
    "capital_australiano": "false",
    "tipo": "no_metalifero"
  },
  {
    "id": "nm-cerro-la-garrapata",
    "nombre": "CERRO LA GARRAPATA",
    "lat": "-33.695557",
    "lon": "-65.140115",
    "mineral_principal": "Basalto",
    "provincia": "San Luis",
    "etapa": "produccion",
    "empresa_operadora": "BASALTO INDUSTRIAL Y COMERCIAL S.R.L.",
    "pais_empresa": "",
    "capital_australiano": "false",
    "tipo": "no_metalifero"
  },
  {
    "id": "nm-sam-tom-i",
    "nombre": "SAM TOM I",
    "lat": "-32.990621",
    "lon": "-65.999901",
    "mineral_principal": "Feldespato",
    "provincia": "San Luis",
    "etapa": "produccion",
    "empresa_operadora": "ARCE JONATHAN EZEQUIEL",
    "pais_empresa": "",
    "capital_australiano": "false",
    "tipo": "no_metalifero"
  },
  {
    "id": "nm-maxi",
    "nombre": "MAXI",
    "lat": "-33.013995",
    "lon": "-66.852879",
    "mineral_principal": "Yeso",
    "provincia": "San Luis",
    "etapa": "produccion",
    "empresa_operadora": "BECERRA JUAN MARCELINO",
    "pais_empresa": "",
    "capital_australiano": "false",
    "tipo": "no_metalifero"
  },
  {
    "id": "nm-las-bisnietas",
    "nombre": "LAS BISNIETAS",
    "lat": "-32.658173",
    "lon": "-65.692428",
    "mineral_principal": "Granito",
    "provincia": "San Luis",
    "etapa": "produccion",
    "empresa_operadora": "MINERA DEL SALTO SRL",
    "pais_empresa": "",
    "capital_australiano": "false",
    "tipo": "no_metalifero"
  },
  {
    "id": "nm-la-union-xxix-parcela-4",
    "nombre": "LA UNION XXIX PARCELA 4",
    "lat": "-33.025803",
    "lon": "-66.870453",
    "mineral_principal": "Yeso",
    "provincia": "San Luis",
    "etapa": "produccion",
    "empresa_operadora": "MULTIFERT S.A.",
    "pais_empresa": "",
    "capital_australiano": "false",
    "tipo": "no_metalifero"
  },
  {
    "id": "nm-san-carlos-perla-gris-del-salto",
    "nombre": "SAN CARLOS PERLA GRIS DEL SALTO",
    "lat": "-32.664271",
    "lon": "-65.691564",
    "mineral_principal": "Granito",
    "provincia": "San Luis",
    "etapa": "produccion",
    "empresa_operadora": "GENARO Y ANDRES DE STEFANO SACIAyG",
    "pais_empresa": "",
    "capital_australiano": "false",
    "tipo": "no_metalifero"
  },
  {
    "id": "nm-salto",
    "nombre": "SALTO",
    "lat": "-32.736904",
    "lon": "-65.71498",
    "mineral_principal": "Feldespato",
    "provincia": "San Luis",
    "etapa": "produccion",
    "empresa_operadora": "VALDEON VICTOR HUGO",
    "pais_empresa": "",
    "capital_australiano": "false",
    "tipo": "no_metalifero"
  },
  {
    "id": "nm-sinai",
    "nombre": "SINAI",
    "lat": "-32.570495",
    "lon": "-65.44525",
    "mineral_principal": "Feldespato",
    "provincia": "San Luis",
    "etapa": "produccion",
    "empresa_operadora": "SUAREZ DAVID NELSON",
    "pais_empresa": "",
    "capital_australiano": "false",
    "tipo": "no_metalifero"
  },
  {
    "id": "nm-don-rodolfo",
    "nombre": "DON RODOLFO",
    "lat": "-32.704562",
    "lon": "-66.057889",
    "mineral_principal": "Feldespato",
    "provincia": "San Luis",
    "etapa": "produccion",
    "empresa_operadora": "PRIETO WALTER ESTEBAN",
    "pais_empresa": "",
    "capital_australiano": "false",
    "tipo": "no_metalifero"
  },
  {
    "id": "nm-el-llavero",
    "nombre": "EL LLAVERO",
    "lat": "-32.12608",
    "lon": "-65.250229",
    "mineral_principal": "Feldespato",
    "provincia": "San Luis",
    "etapa": "produccion",
    "empresa_operadora": "OCHOA RAUL ERNESTO",
    "pais_empresa": "",
    "capital_australiano": "false",
    "tipo": "no_metalifero"
  },
  {
    "id": "nm-margarita-i",
    "nombre": "MARGARITA I",
    "lat": "-33.034461",
    "lon": "-66.869924",
    "mineral_principal": "Yeso",
    "provincia": "San Luis",
    "etapa": "produccion",
    "empresa_operadora": "PIZARRO JOSE ANTONIO",
    "pais_empresa": "",
    "capital_australiano": "false",
    "tipo": "no_metalifero"
  },
  {
    "id": "nm-mi-angel",
    "nombre": "MI ANGEL",
    "lat": "-32.909759",
    "lon": "-65.940316",
    "mineral_principal": "Feldespato",
    "provincia": "San Luis",
    "etapa": "produccion",
    "empresa_operadora": "BPA ARGENTINA S.A.",
    "pais_empresa": "",
    "capital_australiano": "false",
    "tipo": "no_metalifero"
  },
  {
    "id": "nm-el-delgado",
    "nombre": "EL DELGADO",
    "lat": "-32.529826",
    "lon": "-65.415629",
    "mineral_principal": "Feldespato",
    "provincia": "San Luis",
    "etapa": "produccion",
    "empresa_operadora": "DRYON FRANCISCO",
    "pais_empresa": "",
    "capital_australiano": "false",
    "tipo": "no_metalifero"
  },
  {
    "id": "nm-don-esteban",
    "nombre": "DON ESTEBAN",
    "lat": "-32.947579",
    "lon": "-65.956172",
    "mineral_principal": "Feldespato",
    "provincia": "San Luis",
    "etapa": "produccion",
    "empresa_operadora": "DEHUAI GEO SUDAMERICANA S.A.",
    "pais_empresa": "",
    "capital_australiano": "false",
    "tipo": "no_metalifero"
  },
  {
    "id": "nm-la-abundancia",
    "nombre": "LA ABUNDANCIA",
    "lat": "-32.440401",
    "lon": "-65.616974",
    "mineral_principal": "Arena",
    "provincia": "San Luis",
    "etapa": "produccion",
    "empresa_operadora": "VOLADURAS SAN LUIS SRL",
    "pais_empresa": "",
    "capital_australiano": "false",
    "tipo": "no_metalifero"
  },
  {
    "id": "nm-la-lurdita",
    "nombre": "LA LURDITA",
    "lat": "-33.341731",
    "lon": "-66.816696",
    "mineral_principal": "Arena",
    "provincia": "San Luis",
    "etapa": "produccion",
    "empresa_operadora": "CASTILLO, RAFAEL RAUL",
    "pais_empresa": "",
    "capital_australiano": "false",
    "tipo": "no_metalifero"
  },
  {
    "id": "nm-la-gruta-v",
    "nombre": "LA GRUTA V",
    "lat": "-33.631595",
    "lon": "-65.571975",
    "mineral_principal": "Arena",
    "provincia": "San Luis",
    "etapa": "produccion",
    "empresa_operadora": "LA GRUTA S.R.L.",
    "pais_empresa": "",
    "capital_australiano": "false",
    "tipo": "no_metalifero"
  },
  {
    "id": "nm-los-cuatro-pozos",
    "nombre": "LOS CUATRO POZOS",
    "lat": "-35.562182",
    "lon": "-65.16894",
    "mineral_principal": "Arena",
    "provincia": "San Luis",
    "etapa": "produccion",
    "empresa_operadora": "MINERIA Y SERVICIOS S.A.",
    "pais_empresa": "",
    "capital_australiano": "false",
    "tipo": "no_metalifero"
  },
  {
    "id": "nm-juan-jose",
    "nombre": "JUAN JOSE",
    "lat": "-32.562784",
    "lon": "-65.516444",
    "mineral_principal": "Arena",
    "provincia": "San Luis",
    "etapa": "produccion",
    "empresa_operadora": "MORA RAMON ROQUE",
    "pais_empresa": "",
    "capital_australiano": "false",
    "tipo": "no_metalifero"
  },
  {
    "id": "nm-la-cuyana",
    "nombre": "LA CUYANA",
    "lat": "-33.21403",
    "lon": "-66.296113",
    "mineral_principal": "Arena",
    "provincia": "San Luis",
    "etapa": "produccion",
    "empresa_operadora": "ARENERA EL CHORRILO S.R.L.",
    "pais_empresa": "",
    "capital_australiano": "false",
    "tipo": "no_metalifero"
  },
  {
    "id": "nm-la-negra",
    "nombre": "LA NEGRA",
    "lat": "-32.84577",
    "lon": "-66.265354",
    "mineral_principal": "Arena",
    "provincia": "San Luis",
    "etapa": "produccion",
    "empresa_operadora": "ARENERA EL CHORRILO S.R.L.",
    "pais_empresa": "",
    "capital_australiano": "false",
    "tipo": "no_metalifero"
  },
  {
    "id": "nm-ricardhino",
    "nombre": "RICARDHINO",
    "lat": "-33.39311",
    "lon": "-67.014379",
    "mineral_principal": "Arenas silíceas",
    "provincia": "San Luis",
    "etapa": "produccion",
    "empresa_operadora": "MARIÑELARENA RICARDO RAMON",
    "pais_empresa": "",
    "capital_australiano": "false",
    "tipo": "no_metalifero"
  },
  {
    "id": "nm-rincon-del-valle-aridos",
    "nombre": "RINCON DEL VALLE ARIDOS",
    "lat": "-33.398298",
    "lon": "-66.989313",
    "mineral_principal": "Arena",
    "provincia": "San Luis",
    "etapa": "produccion",
    "empresa_operadora": "PEREZ EULALIO",
    "pais_empresa": "",
    "capital_australiano": "false",
    "tipo": "no_metalifero"
  },
  {
    "id": "nm-en-camino",
    "nombre": "EN CAMINO",
    "lat": "-33.346255",
    "lon": "-66.405974",
    "mineral_principal": "Arena",
    "provincia": "San Luis",
    "etapa": "produccion",
    "empresa_operadora": "SE.MI.S.A.",
    "pais_empresa": "",
    "capital_australiano": "false",
    "tipo": "no_metalifero"
  },
  {
    "id": "nm-la-grava",
    "nombre": "LA GRAVA",
    "lat": "-32.927966",
    "lon": "-66.377059",
    "mineral_principal": "Arena",
    "provincia": "San Luis",
    "etapa": "produccion",
    "empresa_operadora": "SE.MI.S.A.",
    "pais_empresa": "",
    "capital_australiano": "false",
    "tipo": "no_metalifero"
  },
  {
    "id": "nm-desembanque-rio-nogoli",
    "nombre": "DESEMBANQUE RIO NOGOLI",
    "lat": "-32.979446",
    "lon": "-66.425605",
    "mineral_principal": "Arena",
    "provincia": "San Luis",
    "etapa": "produccion",
    "empresa_operadora": "SE.MI.S.A.",
    "pais_empresa": "",
    "capital_australiano": "false",
    "tipo": "no_metalifero"
  },
  {
    "id": "nm-desembanque-rio-chorrillo",
    "nombre": "DESEMBANQUE RIO CHORRILLO",
    "lat": "-33.34729",
    "lon": "-66.393068",
    "mineral_principal": "Arena",
    "provincia": "San Luis",
    "etapa": "produccion",
    "empresa_operadora": "SE.MI.S.A.",
    "pais_empresa": "",
    "capital_australiano": "false",
    "tipo": "no_metalifero"
  },
  {
    "id": "nm-pozo-escondido",
    "nombre": "POZO ESCONDIDO",
    "lat": "-33.366345",
    "lon": "-66.379634",
    "mineral_principal": "Arena",
    "provincia": "San Luis",
    "etapa": "produccion",
    "empresa_operadora": "VIDELA OSCAR ALEJANDRO",
    "pais_empresa": "",
    "capital_australiano": "false",
    "tipo": "no_metalifero"
  },
  {
    "id": "nm-la-esperanza",
    "nombre": "LA ESPERANZA",
    "lat": "-33.274916",
    "lon": "-66.384195",
    "mineral_principal": "Arena",
    "provincia": "San Luis",
    "etapa": "produccion",
    "empresa_operadora": "CONCORDIA S.R.L",
    "pais_empresa": "",
    "capital_australiano": "false",
    "tipo": "no_metalifero"
  },
  {
    "id": "nm-el-capricho",
    "nombre": "EL CAPRICHO",
    "lat": "-33.109673",
    "lon": "-65.62469",
    "mineral_principal": "Arena",
    "provincia": "San Luis",
    "etapa": "produccion",
    "empresa_operadora": "FSG ARIDOS S.H.",
    "pais_empresa": "",
    "capital_australiano": "false",
    "tipo": "no_metalifero"
  },
  {
    "id": "nm-mirasol",
    "nombre": "MIRASOL",
    "lat": "-32.598317",
    "lon": "-65.255571",
    "mineral_principal": "Arena",
    "provincia": "San Luis",
    "etapa": "produccion",
    "empresa_operadora": "AGUILERA JOSE ANGEL",
    "pais_empresa": "",
    "capital_australiano": "false",
    "tipo": "no_metalifero"
  },
  {
    "id": "nm-don-oscar",
    "nombre": "DON OSCAR",
    "lat": "-33.366208",
    "lon": "-66.37854",
    "mineral_principal": "Arena",
    "provincia": "San Luis",
    "etapa": "produccion",
    "empresa_operadora": "VIDELA PABLO DANIEL",
    "pais_empresa": "",
    "capital_australiano": "false",
    "tipo": "no_metalifero"
  },
  {
    "id": "nm-don-oscar-ii",
    "nombre": "DON OSCAR II",
    "lat": "-33.34898",
    "lon": "-66.38555",
    "mineral_principal": "Arena",
    "provincia": "San Luis",
    "etapa": "produccion",
    "empresa_operadora": "VIDELA PABLO DANIEL",
    "pais_empresa": "",
    "capital_australiano": "false",
    "tipo": "no_metalifero"
  },
  {
    "id": "nm-convenio-protambo-san-luis-agua",
    "nombre": "CONVENIO PROTAMBO-SAN LUIS AGUA",
    "lat": "-33.387426",
    "lon": "-66.503706",
    "mineral_principal": "Arena",
    "provincia": "San Luis",
    "etapa": "produccion",
    "empresa_operadora": "PROTAMBO S.A.",
    "pais_empresa": "",
    "capital_australiano": "false",
    "tipo": "no_metalifero"
  },
  {
    "id": "nm-el-chacho",
    "nombre": "EL CHACHO",
    "lat": "-32.435938",
    "lon": "-65.043443",
    "mineral_principal": "Arena",
    "provincia": "San Luis",
    "etapa": "produccion",
    "empresa_operadora": "ROBERTO ULISES TRACCHIA",
    "pais_empresa": "",
    "capital_australiano": "false",
    "tipo": "no_metalifero"
  },
  {
    "id": "nm-la-canterita",
    "nombre": "LA CANTERITA",
    "lat": "-33.708645",
    "lon": "-65.462242",
    "mineral_principal": "Arena",
    "provincia": "San Luis",
    "etapa": "produccion",
    "empresa_operadora": "BERNABEU JORGE FREDY",
    "pais_empresa": "",
    "capital_australiano": "false",
    "tipo": "no_metalifero"
  },
  {
    "id": "nm-luco-i",
    "nombre": "LUCO I",
    "lat": "-32.454365",
    "lon": "-65.016452",
    "mineral_principal": "Arena",
    "provincia": "San Luis",
    "etapa": "produccion",
    "empresa_operadora": "HERNANDEZ GREGORIO RAFAEL",
    "pais_empresa": "",
    "capital_australiano": "false",
    "tipo": "no_metalifero"
  },
  {
    "id": "nm-encauzamiento-arroyo-el-tigre",
    "nombre": "ENCAUZAMIENTO ARROYO EL TIGRE",
    "lat": "-32.335996",
    "lon": "-65.008743",
    "mineral_principal": "Arena",
    "provincia": "San Luis",
    "etapa": "produccion",
    "empresa_operadora": "FERNANDEZ ROBERTO ANTONIO",
    "pais_empresa": "",
    "capital_australiano": "false",
    "tipo": "no_metalifero"
  },
  {
    "id": "nm-encauzamiento-arroyo-el-tigre",
    "nombre": "ENCAUZAMIENTO ARROYO EL TIGRE",
    "lat": "-32.336093",
    "lon": "-65.012291",
    "mineral_principal": "Arena",
    "provincia": "San Luis",
    "etapa": "produccion",
    "empresa_operadora": "ZAPATA CRISTIAN MARCELO",
    "pais_empresa": "",
    "capital_australiano": "false",
    "tipo": "no_metalifero"
  },
  {
    "id": "nm-encauzamiento-arroyo-el-tigre",
    "nombre": "ENCAUZAMIENTO ARROYO EL TIGRE",
    "lat": "-32.338909",
    "lon": "-65.023621",
    "mineral_principal": "Arena",
    "provincia": "San Luis",
    "etapa": "produccion",
    "empresa_operadora": "BURI ALDO JULIO",
    "pais_empresa": "",
    "capital_australiano": "false",
    "tipo": "no_metalifero"
  },
  {
    "id": "nm-polo",
    "nombre": "POLO",
    "lat": "-32.508748",
    "lon": "-65.00583",
    "mineral_principal": "Arena",
    "provincia": "San Luis",
    "etapa": "produccion",
    "empresa_operadora": "FIOCHETTA JOSE EMANUEL",
    "pais_empresa": "",
    "capital_australiano": "false",
    "tipo": "no_metalifero"
  },
  {
    "id": "nm-leo",
    "nombre": "LEO",
    "lat": "-33.872289",
    "lon": "-65.207801",
    "mineral_principal": "Arena",
    "provincia": "San Luis",
    "etapa": "produccion",
    "empresa_operadora": "ORLANDO LUIS EMMANUEL",
    "pais_empresa": "",
    "capital_australiano": "false",
    "tipo": "no_metalifero"
  },
  {
    "id": "nm-costa",
    "nombre": "COSTA",
    "lat": "-32.44463",
    "lon": "-66.522877",
    "mineral_principal": "Arena",
    "provincia": "San Luis",
    "etapa": "produccion",
    "empresa_operadora": "COSTA JOSE NORBERTO",
    "pais_empresa": "",
    "capital_australiano": "false",
    "tipo": "no_metalifero"
  },
  {
    "id": "nm-la-esther",
    "nombre": "LA ESTHER",
    "lat": "-32.524051",
    "lon": "-65.029412",
    "mineral_principal": "Arena",
    "provincia": "San Luis",
    "etapa": "produccion",
    "empresa_operadora": "CEBALLOS GONZALO SEBASTIAN",
    "pais_empresa": "",
    "capital_australiano": "false",
    "tipo": "no_metalifero"
  },
  {
    "id": "nm-encauzamiento-arroyo-el-rincon",
    "nombre": "ENCAUZAMIENTO ARROYO EL RINCON",
    "lat": "-32.365511",
    "lon": "-65.005567",
    "mineral_principal": "Arena",
    "provincia": "San Luis",
    "etapa": "produccion",
    "empresa_operadora": "NOVA VIAL SRL",
    "pais_empresa": "",
    "capital_australiano": "false",
    "tipo": "no_metalifero"
  },
  {
    "id": "nm-hormigon-mercedes-iv",
    "nombre": "HORMIGON MERCEDES IV",
    "lat": "-33.704303",
    "lon": "-65.45967",
    "mineral_principal": "Arena",
    "provincia": "San Luis",
    "etapa": "produccion",
    "empresa_operadora": "HORMIGON MERCEDES S.A.",
    "pais_empresa": "",
    "capital_australiano": "false",
    "tipo": "no_metalifero"
  },
  {
    "id": "nm-petrea-i",
    "nombre": "Petrea I",
    "lat": "-28.511513",
    "lon": "-65.808399",
    "mineral_principal": "Arena",
    "provincia": "Catamarca",
    "etapa": "produccion",
    "empresa_operadora": "D´Agostini Fernando Aquelino",
    "pais_empresa": "",
    "capital_australiano": "false",
    "tipo": "no_metalifero"
  },
  {
    "id": "nm-ridos-catamarca",
    "nombre": "Áridos Catamarca",
    "lat": "-28.553356",
    "lon": "-65.788449",
    "mineral_principal": "Arena",
    "provincia": "Catamarca",
    "etapa": "produccion",
    "empresa_operadora": "Soria Leiva Julio Ariel",
    "pais_empresa": "",
    "capital_australiano": "false",
    "tipo": "no_metalifero"
  },
  {
    "id": "nm-francisco",
    "nombre": "Francisco",
    "lat": "-28.528454",
    "lon": "-65.747455",
    "mineral_principal": "Arena",
    "provincia": "Catamarca",
    "etapa": "produccion",
    "empresa_operadora": "Ollier Juan Alejandro",
    "pais_empresa": "",
    "capital_australiano": "false",
    "tipo": "no_metalifero"
  },
  {
    "id": "nm-cantera-b",
    "nombre": "Cantera B",
    "lat": "-28.51855",
    "lon": "-65.719704",
    "mineral_principal": "Arena",
    "provincia": "Catamarca",
    "etapa": "produccion",
    "empresa_operadora": "Guido Moguetta Prevedello",
    "pais_empresa": "",
    "capital_australiano": "false",
    "tipo": "no_metalifero"
  },
  {
    "id": "nm-ridos-del-este",
    "nombre": "Áridos del Este",
    "lat": "-28.512554",
    "lon": "-65.710844",
    "mineral_principal": "Arena",
    "provincia": "Catamarca",
    "etapa": "produccion",
    "empresa_operadora": "Llance Gonzalo Edgardo",
    "pais_empresa": "",
    "capital_australiano": "false",
    "tipo": "no_metalifero"
  },
  {
    "id": "nm-ediciones-srl",
    "nombre": "Ediciones SRL",
    "lat": "-28.524838",
    "lon": "-65.738812",
    "mineral_principal": "Arena",
    "provincia": "Catamarca",
    "etapa": "produccion",
    "empresa_operadora": "Ediciones SRL",
    "pais_empresa": "",
    "capital_australiano": "false",
    "tipo": "no_metalifero"
  },
  {
    "id": "nm-r-o-miraflores",
    "nombre": "Río Miraflores",
    "lat": "-28.618847",
    "lon": "-65.848719",
    "mineral_principal": "Arena",
    "provincia": "Catamarca",
    "etapa": "produccion",
    "empresa_operadora": "Sucesión de  Guido Moguetta",
    "pais_empresa": "",
    "capital_australiano": "false",
    "tipo": "no_metalifero"
  },
  {
    "id": "nm-la-generosa",
    "nombre": "La Generosa",
    "lat": "-28.73509",
    "lon": "-66.005019",
    "mineral_principal": "Arena",
    "provincia": "Catamarca",
    "etapa": "produccion",
    "empresa_operadora": "Fikinger, Martín Ricardo",
    "pais_empresa": "",
    "capital_australiano": "false",
    "tipo": "no_metalifero"
  },
  {
    "id": "nm-ralu",
    "nombre": "Ralu",
    "lat": "-29.209078",
    "lon": "-65.446965",
    "mineral_principal": "Arena",
    "provincia": "Catamarca",
    "etapa": "produccion",
    "empresa_operadora": "Verdu Vicente Ricardo",
    "pais_empresa": "",
    "capital_australiano": "false",
    "tipo": "no_metalifero"
  },
  {
    "id": "nm-don-ra-l",
    "nombre": "Don Raúl",
    "lat": "-29.196712",
    "lon": "-65.454736",
    "mineral_principal": "Arena",
    "provincia": "Catamarca",
    "etapa": "produccion",
    "empresa_operadora": "De María Roman Maximiliano",
    "pais_empresa": "",
    "capital_australiano": "false",
    "tipo": "no_metalifero"
  },
  {
    "id": "nm-la-segunda-aconquija",
    "nombre": "La Segunda Aconquija",
    "lat": "-27.521774",
    "lon": "-66.079765",
    "mineral_principal": "Arena",
    "provincia": "Catamarca",
    "etapa": "produccion",
    "empresa_operadora": "Sucesión de Guido Moguetta",
    "pais_empresa": "",
    "capital_australiano": "false",
    "tipo": "no_metalifero"
  },
  {
    "id": "nm-r-o-el-bols-n",
    "nombre": "Río El Bolsón",
    "lat": "-27.001765",
    "lon": "-66.745681",
    "mineral_principal": "Arena",
    "provincia": "Catamarca",
    "etapa": "produccion",
    "empresa_operadora": "Sucesión de Guido Moguetta",
    "pais_empresa": "",
    "capital_australiano": "false",
    "tipo": "no_metalifero"
  },
  {
    "id": "nm-r-o-yerba-buena",
    "nombre": "Río Yerba Buena",
    "lat": "-26.944701",
    "lon": "-66.728512",
    "mineral_principal": "Arena",
    "provincia": "Catamarca",
    "etapa": "produccion",
    "empresa_operadora": "Sucesión de Guido Moguetta",
    "pais_empresa": "",
    "capital_australiano": "false",
    "tipo": "no_metalifero"
  },
  {
    "id": "nm-el-peti",
    "nombre": "El Peti",
    "lat": "-27.681112",
    "lon": "-66.977911",
    "mineral_principal": "Arena",
    "provincia": "Catamarca",
    "etapa": "produccion",
    "empresa_operadora": "Calabro, Atilio",
    "pais_empresa": "",
    "capital_australiano": "false",
    "tipo": "no_metalifero"
  },
  {
    "id": "nm-aibar-selim",
    "nombre": "Aibar Selim",
    "lat": "-27.655518",
    "lon": "-67.015682",
    "mineral_principal": "Arena",
    "provincia": "Catamarca",
    "etapa": "produccion",
    "empresa_operadora": "Aibar Selim Héctor",
    "pais_empresa": "",
    "capital_australiano": "false",
    "tipo": "no_metalifero"
  },
  {
    "id": "nm-aibar-selim-ii",
    "nombre": "Aibar Selim II",
    "lat": "-27.548249",
    "lon": "-67.026136",
    "mineral_principal": "Arena",
    "provincia": "Catamarca",
    "etapa": "produccion",
    "empresa_operadora": "Aibar Selim Héctor",
    "pais_empresa": "",
    "capital_australiano": "false",
    "tipo": "no_metalifero"
  },
  {
    "id": "nm-calabro",
    "nombre": "Calabro",
    "lat": "-27.661755",
    "lon": "-67.013842",
    "mineral_principal": "Arena",
    "provincia": "Catamarca",
    "etapa": "produccion",
    "empresa_operadora": "Calabro Renato Gabriel",
    "pais_empresa": "",
    "capital_australiano": "false",
    "tipo": "no_metalifero"
  },
  {
    "id": "nm-el-puesto",
    "nombre": "El Puesto",
    "lat": "-26.695725",
    "lon": "-66.028953",
    "mineral_principal": "Arena",
    "provincia": "Catamarca",
    "etapa": "produccion",
    "empresa_operadora": "Parra Rodolfo",
    "pais_empresa": "",
    "capital_australiano": "false",
    "tipo": "no_metalifero"
  },
  {
    "id": "nm-galaxy-k",
    "nombre": "Galaxy K",
    "lat": "-25.35064",
    "lon": "-66.858066",
    "mineral_principal": "Arena",
    "provincia": "Catamarca",
    "etapa": "produccion",
    "empresa_operadora": "Galaxy Lithium S.A.",
    "pais_empresa": "",
    "capital_australiano": "false",
    "tipo": "no_metalifero"
  },
  {
    "id": "nm-arena-fiambal",
    "nombre": "Arena Fiambalá",
    "lat": "-27.680848",
    "lon": "-67.630726",
    "mineral_principal": "Arena",
    "provincia": "Catamarca",
    "etapa": "produccion",
    "empresa_operadora": "Suc. Guido David Moguetta",
    "pais_empresa": "",
    "capital_australiano": "false",
    "tipo": "no_metalifero"
  },
  {
    "id": "nm-el-morro",
    "nombre": "El Morro",
    "lat": "-29.40558",
    "lon": "-65.408257",
    "mineral_principal": "Dolomía",
    "provincia": "Catamarca",
    "etapa": "produccion",
    "empresa_operadora": "El Cerrito S.R.L.",
    "pais_empresa": "",
    "capital_australiano": "false",
    "tipo": "no_metalifero"
  },
  {
    "id": "nm-do-a-amalia-f-b-cemento-loma-negra",
    "nombre": "Doña Amalia (Fáb. cemento Loma Negra)",
    "lat": "-28.469043",
    "lon": "-65.251227",
    "mineral_principal": "Caliza",
    "provincia": "Catamarca",
    "etapa": "produccion",
    "empresa_operadora": "Loma Negra Ciasa",
    "pais_empresa": "",
    "capital_australiano": "false",
    "tipo": "no_metalifero"
  },
  {
    "id": "nm-quijo-huasi",
    "nombre": "Quijo Huasi",
    "lat": "-28.287519",
    "lon": "-66.124479",
    "mineral_principal": "Cuarzo",
    "provincia": "Catamarca",
    "etapa": "produccion",
    "empresa_operadora": "Krilo S.A.",
    "pais_empresa": "",
    "capital_australiano": "false",
    "tipo": "no_metalifero"
  },
  {
    "id": "nm-carachi-pampa",
    "nombre": "Carachi Pampa",
    "lat": "-26.44378",
    "lon": "-67.42598",
    "mineral_principal": "Dolomía",
    "provincia": "Catamarca",
    "etapa": "produccion",
    "empresa_operadora": "Ontario INC.; Crydon S.A.",
    "pais_empresa": "",
    "capital_australiano": "false",
    "tipo": "no_metalifero"
  },
  {
    "id": "nm-el-barrial",
    "nombre": "EL BARRIAL",
    "lat": "-27.419286",
    "lon": "-67.62132",
    "mineral_principal": "Granulado volcánico",
    "provincia": "Catamarca",
    "etapa": "produccion",
    "empresa_operadora": "Bollecich Dardo Clemente-San Francisco",
    "pais_empresa": "",
    "capital_australiano": "false",
    "tipo": "no_metalifero"
  },
  {
    "id": "nm-yacimiento-recro",
    "nombre": "Yacimiento Recro",
    "lat": "-29.301047",
    "lon": "-65.025452",
    "mineral_principal": "Yeso",
    "provincia": "Catamarca",
    "etapa": "produccion",
    "empresa_operadora": "Minerales del Recreo  S.A.",
    "pais_empresa": "",
    "capital_australiano": "false",
    "tipo": "no_metalifero"
  },
  {
    "id": "nm-los-b-falos",
    "nombre": "Los Búfalos",
    "lat": "-29.152989",
    "lon": "-65.051061",
    "mineral_principal": "Yeso",
    "provincia": "Catamarca",
    "etapa": "produccion",
    "empresa_operadora": "La Pipa SRL",
    "pais_empresa": "",
    "capital_australiano": "false",
    "tipo": "no_metalifero"
  },
  {
    "id": "nm-taco-pampa",
    "nombre": "Taco Pampa",
    "lat": "-29.364092",
    "lon": "-65.376359",
    "mineral_principal": "Yeso",
    "provincia": "Catamarca",
    "etapa": "produccion",
    "empresa_operadora": "Pedro Cuberes -B. Balancini",
    "pais_empresa": "",
    "capital_australiano": "false",
    "tipo": "no_metalifero"
  },
  {
    "id": "nm-san-antonio",
    "nombre": "San Antonio",
    "lat": "-28.946538",
    "lon": "-64.968142",
    "mineral_principal": "Yeso",
    "provincia": "Catamarca",
    "etapa": "produccion",
    "empresa_operadora": "Bigotti y Zanier SRL",
    "pais_empresa": "",
    "capital_australiano": "false",
    "tipo": "no_metalifero"
  },
  {
    "id": "nm-cantera-cerro-de-la-madera",
    "nombre": "Cantera Cerro de la Madera",
    "lat": "-33.66408333",
    "lon": "-64.96211111",
    "mineral_principal": "Triturados pétreos",
    "provincia": "Córdoba",
    "etapa": "produccion",
    "empresa_operadora": "Luciano SA",
    "pais_empresa": "",
    "capital_australiano": "false",
    "tipo": "no_metalifero"
  },
  {
    "id": "nm-bringas-i",
    "nombre": "Bringas I",
    "lat": "-33.40945556",
    "lon": "-64.71891667",
    "mineral_principal": "Triturados pétreos",
    "provincia": "Córdoba",
    "etapa": "produccion",
    "empresa_operadora": "Bringas Juan Carlos",
    "pais_empresa": "",
    "capital_australiano": "false",
    "tipo": "no_metalifero"
  },
  {
    "id": "nm-cantera-puente-islas-malvinas",
    "nombre": "Cantera Puente Islas Malvinas",
    "lat": "-33.07672222",
    "lon": "-64.36425",
    "mineral_principal": "Arena",
    "provincia": "Córdoba",
    "etapa": "produccion",
    "empresa_operadora": "El Gaucho SRL",
    "pais_empresa": "",
    "capital_australiano": "false",
    "tipo": "no_metalifero"
  },
  {
    "id": "nm-la-merced-ii",
    "nombre": "La Merced II",
    "lat": "-33.05608333",
    "lon": "-64.36758333",
    "mineral_principal": "Arena",
    "provincia": "Córdoba",
    "etapa": "produccion",
    "empresa_operadora": "Marinelli SA",
    "pais_empresa": "",
    "capital_australiano": "false",
    "tipo": "no_metalifero"
  },
  {
    "id": "nm-cantera-german-paniego",
    "nombre": "Cantera German Paniego",
    "lat": "-33.06224722",
    "lon": "-64.36064167",
    "mineral_principal": "Arena",
    "provincia": "Córdoba",
    "etapa": "produccion",
    "empresa_operadora": "Paniego German",
    "pais_empresa": "",
    "capital_australiano": "false",
    "tipo": "no_metalifero"
  },
  {
    "id": "nm-planta-la-chiquita",
    "nombre": "Planta La Chiquita",
    "lat": "-33.05610833",
    "lon": "-64.38059722",
    "mineral_principal": "Arena",
    "provincia": "Córdoba",
    "etapa": "produccion",
    "empresa_operadora": "Bruno Hugo Andres",
    "pais_empresa": "",
    "capital_australiano": "false",
    "tipo": "no_metalifero"
  },
  {
    "id": "nm-cantera-don-berto",
    "nombre": "Cantera Don Berto",
    "lat": "-33.04875",
    "lon": "-64.39225",
    "mineral_principal": "Arena",
    "provincia": "Córdoba",
    "etapa": "produccion",
    "empresa_operadora": "Ingeniero Lunardi SRL",
    "pais_empresa": "",
    "capital_australiano": "false",
    "tipo": "no_metalifero"
  },
  {
    "id": "nm-cantera-los-cocos",
    "nombre": "Cantera Los Cocos",
    "lat": "-32.47683611",
    "lon": "-64.68570556",
    "mineral_principal": "Dolomía",
    "provincia": "Córdoba",
    "etapa": "produccion",
    "empresa_operadora": "Establecimiento Minero Sofia SRL",
    "pais_empresa": "",
    "capital_australiano": "false",
    "tipo": "no_metalifero"
  },
  {
    "id": "nm-cantera-los-molles",
    "nombre": "Cantera Los Molles",
    "lat": "-32.47063889",
    "lon": "-64.31641667",
    "mineral_principal": "Triturados pétreos",
    "provincia": "Córdoba",
    "etapa": "produccion",
    "empresa_operadora": "Mirhanovich Cristo SRL",
    "pais_empresa": "",
    "capital_australiano": "false",
    "tipo": "no_metalifero"
  },
  {
    "id": "nm-cantera-hernandez",
    "nombre": "Cantera Hernandez",
    "lat": "-32.38348611",
    "lon": "-64.53250278",
    "mineral_principal": "Dolomía",
    "provincia": "Córdoba",
    "etapa": "produccion",
    "empresa_operadora": "ESTABLECIMIENTO MINERO SOFIA SRL",
    "pais_empresa": "",
    "capital_australiano": "false",
    "tipo": "no_metalifero"
  },
  {
    "id": "nm-cantera-el-molle",
    "nombre": "Cantera El Molle",
    "lat": "-32.36702778",
    "lon": "-64.53444444",
    "mineral_principal": "Dolomía",
    "provincia": "Córdoba",
    "etapa": "produccion",
    "empresa_operadora": "TOLEDO JULIO ARMANDO",
    "pais_empresa": "",
    "capital_australiano": "false",
    "tipo": "no_metalifero"
  },
  {
    "id": "nm-planta-el-quebracho-ii",
    "nombre": "Planta El Quebracho II",
    "lat": "-32.26755556",
    "lon": "-64.37133333",
    "mineral_principal": "Triturados pétreos",
    "provincia": "Córdoba",
    "etapa": "produccion",
    "empresa_operadora": "PAREDES OMAR DANIE",
    "pais_empresa": "",
    "capital_australiano": "false",
    "tipo": "no_metalifero"
  },
  {
    "id": "nm-cantera-y-planta-de-triturados-el-s",
    "nombre": "Cantera y Planta de triturados El Salto",
    "lat": "-32.24608056",
    "lon": "-64.35660556",
    "mineral_principal": "Triturados pétreos",
    "provincia": "Córdoba",
    "etapa": "produccion",
    "empresa_operadora": "ARIDOS SA",
    "pais_empresa": "",
    "capital_australiano": "false",
    "tipo": "no_metalifero"
  },
  {
    "id": "nm-ridos-san-francisco",
    "nombre": "Áridos San Francisco",
    "lat": "-31.95336111",
    "lon": "-65.14127778",
    "mineral_principal": "Arena",
    "provincia": "Córdoba",
    "etapa": "produccion",
    "empresa_operadora": "CARNICER MIGUEL ANGEL",
    "pais_empresa": "",
    "capital_australiano": "false",
    "tipo": "no_metalifero"
  },
  {
    "id": "nm-cantera-ctalamuchita-ii",
    "nombre": "Cantera Ctalamuchita II",
    "lat": "-32.151",
    "lon": "-64.15077778",
    "mineral_principal": "Arena",
    "provincia": "Córdoba",
    "etapa": "produccion",
    "empresa_operadora": "BOCOS ALONSO",
    "pais_empresa": "",
    "capital_australiano": "false",
    "tipo": "no_metalifero"
  },
  {
    "id": "nm-cantera-mercadal",
    "nombre": "Cantera Mercadal",
    "lat": "-32.16691667",
    "lon": "-64.18913889",
    "mineral_principal": "Arena",
    "provincia": "Córdoba",
    "etapa": "produccion",
    "empresa_operadora": "MERCADAL SEBASTIAN RUBEN",
    "pais_empresa": "",
    "capital_australiano": "false",
    "tipo": "no_metalifero"
  },
  {
    "id": "nm-cantera-lourdes",
    "nombre": "Cantera Lourdes",
    "lat": "-32.06833333",
    "lon": "-64.4225",
    "mineral_principal": "Triturados pétreos",
    "provincia": "Córdoba",
    "etapa": "produccion",
    "empresa_operadora": "PEREYRA RAMON ALBERTO",
    "pais_empresa": "",
    "capital_australiano": "false",
    "tipo": "no_metalifero"
  },
  {
    "id": "nm-cantera-san-agustin",
    "nombre": "Cantera San Agustin",
    "lat": "-32.00288889",
    "lon": "-64.41066667",
    "mineral_principal": "Caliza",
    "provincia": "Córdoba",
    "etapa": "produccion",
    "empresa_operadora": "CANTERAS SAN AGUSTIN SRL",
    "pais_empresa": "",
    "capital_australiano": "false",
    "tipo": "no_metalifero"
  },
  {
    "id": "nm-cantera-y-planta-blancaley",
    "nombre": "Cantera y Planta Blancaley",
    "lat": "-31.98788889",
    "lon": "-64.41566667",
    "mineral_principal": "Dolomía",
    "provincia": "Córdoba",
    "etapa": "produccion",
    "empresa_operadora": "MIGUEL CALDERON E HIJOS SA",
    "pais_empresa": "",
    "capital_australiano": "false",
    "tipo": "no_metalifero"
  },
  {
    "id": "nm-cantera-fondomonte",
    "nombre": "Cantera Fondomonte",
    "lat": "-31.84247222",
    "lon": "-65.38366667",
    "mineral_principal": "Arena",
    "provincia": "Córdoba",
    "etapa": "produccion",
    "empresa_operadora": "FONDOMONTE SOUTH AMERICA SA",
    "pais_empresa": "",
    "capital_australiano": "false",
    "tipo": "no_metalifero"
  },
  {
    "id": "nm-cantera-el-alto",
    "nombre": "Cantera El Alto",
    "lat": "-31.73975",
    "lon": "-64.39422222",
    "mineral_principal": "Arena",
    "provincia": "Córdoba",
    "etapa": "produccion",
    "empresa_operadora": "CANTERAS EL ALTO SRL",
    "pais_empresa": "",
    "capital_australiano": "false",
    "tipo": "no_metalifero"
  },
  {
    "id": "nm-ripiera-san-nicolas",
    "nombre": "Ripiera San Nicolas",
    "lat": "-31.75525",
    "lon": "-64.37227778",
    "mineral_principal": "Arena",
    "provincia": "Córdoba",
    "etapa": "produccion",
    "empresa_operadora": "RIPIERA SAN NICOLAS SA",
    "pais_empresa": "",
    "capital_australiano": "false",
    "tipo": "no_metalifero"
  },
  {
    "id": "nm-cantera-y-planta-de-triturados-xana",
    "nombre": "Cantera y Planta de triturados Xanaes I y II",
    "lat": "-31.79027778",
    "lon": "-64.309425",
    "mineral_principal": "Triturados pétreos",
    "provincia": "Córdoba",
    "etapa": "produccion",
    "empresa_operadora": "PEREYRA RAMON",
    "pais_empresa": "",
    "capital_australiano": "false",
    "tipo": "no_metalifero"
  },
  {
    "id": "nm-cantera-susana",
    "nombre": "Cantera Susana",
    "lat": "-31.8039",
    "lon": "-64.27523056",
    "mineral_principal": "Arena",
    "provincia": "Córdoba",
    "etapa": "produccion",
    "empresa_operadora": "CANTERA SUSANA SA",
    "pais_empresa": "",
    "capital_australiano": "false",
    "tipo": "no_metalifero"
  },
  {
    "id": "nm-cantera-rescala",
    "nombre": "Cantera Rescala",
    "lat": "-31.73367222",
    "lon": "-64.19822778",
    "mineral_principal": "Arena",
    "provincia": "Córdoba",
    "etapa": "produccion",
    "empresa_operadora": "RESCALA EDUARDO ENRIQUE",
    "pais_empresa": "",
    "capital_australiano": "false",
    "tipo": "no_metalifero"
  },
  {
    "id": "nm-cantera-xanaes-iii",
    "nombre": "Cantera Xanaes III",
    "lat": "-31.70425",
    "lon": "-64.15963889",
    "mineral_principal": "Arena",
    "provincia": "Córdoba",
    "etapa": "produccion",
    "empresa_operadora": "LA MARCHESINA SRL",
    "pais_empresa": "",
    "capital_australiano": "false",
    "tipo": "no_metalifero"
  },
  {
    "id": "nm-cantera-am-pa-lu-ma",
    "nombre": "Cantera AM.PA.LU.MA",
    "lat": "-31.60920833",
    "lon": "-63.72419722",
    "mineral_principal": "Arena",
    "provincia": "Córdoba",
    "etapa": "produccion",
    "empresa_operadora": "RUBEN GERMAN CHANQUIA",
    "pais_empresa": "",
    "capital_australiano": "false",
    "tipo": "no_metalifero"
  },
  {
    "id": "nm-cantera-ser-mar",
    "nombre": "Cantera SER-MAR",
    "lat": "-30.97580278",
    "lon": "-64.13682222",
    "mineral_principal": "Arena",
    "provincia": "Córdoba",
    "etapa": "produccion",
    "empresa_operadora": "BOEZIO MARIA EMILIA",
    "pais_empresa": "",
    "capital_australiano": "false",
    "tipo": "no_metalifero"
  },
  {
    "id": "nm-cantera-terra",
    "nombre": "Cantera Terra",
    "lat": "-31.42088889",
    "lon": "-64.08125",
    "mineral_principal": "Arena",
    "provincia": "Córdoba",
    "etapa": "produccion",
    "empresa_operadora": "ARCE FERNANDO WALTER",
    "pais_empresa": "",
    "capital_australiano": "false",
    "tipo": "no_metalifero"
  },
  {
    "id": "nm-cantera-black-rock",
    "nombre": "Cantera Black Rock",
    "lat": "-31.62447222",
    "lon": "-64.49208333",
    "mineral_principal": "Caliza",
    "provincia": "Córdoba",
    "etapa": "produccion",
    "empresa_operadora": "CANTERA BLACK ROCK SAS",
    "pais_empresa": "",
    "capital_australiano": "false",
    "tipo": "no_metalifero"
  },
  {
    "id": "nm-cantera-y-planta-el-monumento",
    "nombre": "Cantera y Planta El Monumento",
    "lat": "-31.56086111",
    "lon": "-64.333",
    "mineral_principal": "Arena",
    "provincia": "Córdoba",
    "etapa": "produccion",
    "empresa_operadora": "SERVING SRL",
    "pais_empresa": "",
    "capital_australiano": "false",
    "tipo": "no_metalifero"
  },
  {
    "id": "nm-cantera-los-tres-hermanos",
    "nombre": "Cantera Los Tres Hermanos",
    "lat": "-31.22477778",
    "lon": "-63.46241667",
    "mineral_principal": "Arena",
    "provincia": "Córdoba",
    "etapa": "produccion",
    "empresa_operadora": "GOMEZ FRANCISCO ALEMIR",
    "pais_empresa": "",
    "capital_australiano": "false",
    "tipo": "no_metalifero"
  },
  {
    "id": "nm-cantera-los-sauces",
    "nombre": "Cantera Los Sauces",
    "lat": "-31.27244444",
    "lon": "-63.54486111",
    "mineral_principal": "Arena",
    "provincia": "Córdoba",
    "etapa": "produccion",
    "empresa_operadora": "MARCHISONE SA",
    "pais_empresa": "",
    "capital_australiano": "false",
    "tipo": "no_metalifero"
  },
  {
    "id": "nm-cantera-rosso",
    "nombre": "Cantera Rosso",
    "lat": "-31.34377778",
    "lon": "-63.55652778",
    "mineral_principal": "Arena",
    "provincia": "Córdoba",
    "etapa": "produccion",
    "empresa_operadora": "ROSSO ERALDO DANIEL",
    "pais_empresa": "",
    "capital_australiano": "false",
    "tipo": "no_metalifero"
  },
  {
    "id": "nm-cantera-marchisone",
    "nombre": "Cantera Marchisone",
    "lat": "-31.35090833",
    "lon": "-63.60416944",
    "mineral_principal": "Arena",
    "provincia": "Córdoba",
    "etapa": "produccion",
    "empresa_operadora": "MARCHISONE LORENZO OMAR",
    "pais_empresa": "",
    "capital_australiano": "false",
    "tipo": "no_metalifero"
  },
  {
    "id": "nm-cantera-san-nicolas",
    "nombre": "Cantera San Nicolas",
    "lat": "-31.49452778",
    "lon": "-64.37805556",
    "mineral_principal": "Triturados pétreos",
    "provincia": "Córdoba",
    "etapa": "produccion",
    "empresa_operadora": "CANTERAS SAN NICOLAS SRL",
    "pais_empresa": "",
    "capital_australiano": "false",
    "tipo": "no_metalifero"
  },
  {
    "id": "nm-cantera-y-planta-de-triturados-holc",
    "nombre": "Cantera y Planta de triturados Holcim Malagueño",
    "lat": "-31.47744444",
    "lon": "-64.36063889",
    "mineral_principal": "Triturados pétreos",
    "provincia": "Córdoba",
    "etapa": "produccion",
    "empresa_operadora": "HOLCIM ARGENTINA SA",
    "pais_empresa": "",
    "capital_australiano": "false",
    "tipo": "no_metalifero"
  },
  {
    "id": "nm-cantera-diquecito",
    "nombre": "Cantera Diquecito",
    "lat": "-31.36236111",
    "lon": "-64.37491667",
    "mineral_principal": "Triturados pétreos",
    "provincia": "Córdoba",
    "etapa": "produccion",
    "empresa_operadora": "CANTERAS DIQUECITO SA",
    "pais_empresa": "",
    "capital_australiano": "false",
    "tipo": "no_metalifero"
  },
  {
    "id": "nm-cantesur",
    "nombre": "Cantesur",
    "lat": "-31.34745278",
    "lon": "-64.35698056",
    "mineral_principal": "Triturados pétreos",
    "provincia": "Córdoba",
    "etapa": "produccion",
    "empresa_operadora": "CANTESUR SA",
    "pais_empresa": "",
    "capital_australiano": "false",
    "tipo": "no_metalifero"
  },
  {
    "id": "nm-serrano-ii",
    "nombre": "Serrano II",
    "lat": "-31.32786111",
    "lon": "-64.32663889",
    "mineral_principal": "Triturados pétreos",
    "provincia": "Córdoba",
    "etapa": "produccion",
    "empresa_operadora": "CAMARASA ROBERTO FRANCISCO",
    "pais_empresa": "",
    "capital_australiano": "false",
    "tipo": "no_metalifero"
  },
  {
    "id": "nm-cantera-laguna-verde",
    "nombre": "Cantera Laguna Verde",
    "lat": "-31.32595",
    "lon": "-64.32468611",
    "mineral_principal": "Triturados pétreos",
    "provincia": "Córdoba",
    "etapa": "produccion",
    "empresa_operadora": "Terra sa",
    "pais_empresa": "",
    "capital_australiano": "false",
    "tipo": "no_metalifero"
  },
  {
    "id": "nm-cantera-dumesnil",
    "nombre": "Cantera Dumesnil",
    "lat": "-31.31603889",
    "lon": "-64.33453611",
    "mineral_principal": "Triturados pétreos",
    "provincia": "Córdoba",
    "etapa": "produccion",
    "empresa_operadora": "Cantera Dumesnil SA",
    "pais_empresa": "",
    "capital_australiano": "false",
    "tipo": "no_metalifero"
  },
  {
    "id": "nm-canteras-amadeo",
    "nombre": "Canteras Amadeo",
    "lat": "-31.09805556",
    "lon": "-64.31705556",
    "mineral_principal": "Triturados pétreos",
    "provincia": "Córdoba",
    "etapa": "produccion",
    "empresa_operadora": "CANTERAS AMADEO SRL",
    "pais_empresa": "",
    "capital_australiano": "false",
    "tipo": "no_metalifero"
  },
  {
    "id": "nm-cantera-el-rincon",
    "nombre": "Cantera El Rincon",
    "lat": "-31.19935833",
    "lon": "-64.31910833",
    "mineral_principal": "Triturados pétreos",
    "provincia": "Córdoba",
    "etapa": "produccion",
    "empresa_operadora": "MOLIENDA EL RINCON SRL",
    "pais_empresa": "",
    "capital_australiano": "false",
    "tipo": "no_metalifero"
  },